"Activity Type","Transaction Ref ID",Customer/CFA,"Customer/CFA ID","Customer/CFA external ID","Customer/CFA Name","Customer Address",City,"customer subtype",planned(Yes/No),"Customer/CFA Latitude","Customer/CFA Longitude","Visit Date","Visit Time","User BR ID","User Name","User Emp Role ID","user role",reportsToBRID,reportsToName,partner_name,partner_external_id,Purpose,Details,starting_km_reading,ending_km_reading,latitude,longitude,"Activity Address","Distance Away from Customer (in meters)","Synced On"
Workflow,34189416,Customer,12332193,0002010331,"2010331 - SHIVNERI AGRO SERVICES","SHIRWADE VANI, NIPHAD, NASHIK, Maharashtra, India, 423111",NIPHAD,Dealer,No,,,2026-01-29,21:37:59,231725,"Dhananjay Ushir_PIMPALGAON BASVANT",B40,"Territory Manager",231718,D.DHOMSE_Nashik,"CFA - Pune",A521,"Payment Tagging Information","Payment Tagging Information",,,,,,NA,"30 Jan 2026 11:13:47 AM"
Workflow,34182742,Customer,13186265,0002002892,"2002892 - SURYACHANDRA SEEDS & PESTICIDES","D NO 21 - 2 - 04/ 7B, PATNAM BAZAR,, GUNTUR, Andhra Pradesh, India, 522003",GUNTUR,DISTRIBUTOR,No,,,2026-01-29,15:59:11,240509,"Bareddy Venkateswarlu _Guntur",C33,"Territory Manager",240508,"Murali G _guntur",Vijayawada,A732,"Payment Tagging Information","Payment Tagging Information",,,,,"near hotel geeta regency, Arundelpet, Guntur, Andhra Pradesh 522002, India",NA,"30 Jan 2026 10:55:15 AM"
Workflow,34182742,Customer,13186265,0002002892,"2002892 - SURYACHANDRA SEEDS & PESTICIDES","D NO 21 - 2 - 04/ 7B, PATNAM BAZAR,, GUNTUR, Andhra Pradesh, India, 522003",GUNTUR,DISTRIBUTOR,No,,,2026-01-29,15:58:21,240509,"Bareddy Venkateswarlu _Guntur",C33,"Territory Manager",240508,"Murali G _guntur",Vijayawada,A732,"Payment Tagging Information","Payment Tagging Information",,,,,"near hotel geeta regency, Arundelpet, Guntur, Andhra Pradesh 522002, India",NA,"30 Jan 2026 10:55:15 AM"
Workflow,34178563,Customer,14976255,0002013241,"2013241 - ANJAYANEYA FERTILIZERS AND PESTICID","SHOP NO 512/1 & 513/2,, IEEJA, MAHABUBNAGAR, Telangana, India, 509127",IEEJA,DISTRIBUTOR,No,,,2026-01-29,11:34:26,245002,"M SUNEEL KUMAR_Gadwal",I4,"Territory Manager",240666,"Bera Sharath Chandra Kiran",Vijayawada,A732,"Payment Tagging Information","Payment Tagging Information",,,,,,NA,"30 Jan 2026 10:41:41 AM"
Workflow,34178565,Customer,14874016,0002016452,"2016452 - UMA TRADERS","SHOP NO. 5-49/22,, PEBBAIR, WANAPARTHY, Telangana, India, 509104",PEBBAIR,Dealer,No,16.203314900000,77.995453100000,2026-01-29,11:34:06,245002,"M SUNEEL KUMAR_Gadwal",I4,"Territory Manager",240666,"Bera Sharath Chandra Kiran","A735 -CFA Hyderabad",A735,"Payment Tagging Information","Payment Tagging Information",,,16.2033149000,77.9954531000,"SHOP NO. 5-49/22,, PEBBAIR, WANAPARTHY, Telangana, 509104",,"30 Jan 2026 10:41:41 AM"
Workflow,34178563,Customer,14976255,0002013241,"2013241 - ANJAYANEYA FERTILIZERS AND PESTICID","SHOP NO 512/1 & 513/2,, IEEJA, MAHABUBNAGAR, Telangana, India, 509127",IEEJA,DISTRIBUTOR,No,,,2026-01-29,11:32:16,245002,"M SUNEEL KUMAR_Gadwal",I4,"Territory Manager",240666,"Bera Sharath Chandra Kiran",Vijayawada,A732,"Payment Tagging Information","Payment Tagging Information",,,,,,NA,"30 Jan 2026 10:41:41 AM"
Workflow,34178565,Customer,14874016,0002016452,"2016452 - UMA TRADERS","SHOP NO. 5-49/22,, PEBBAIR, WANAPARTHY, Telangana, India, 509104",PEBBAIR,Dealer,No,16.203314900000,77.995453100000,2026-01-29,11:31:36,245002,"M SUNEEL KUMAR_Gadwal",I4,"Territory Manager",240666,"Bera Sharath Chandra Kiran","A735 -CFA Hyderabad",A735,"Payment Tagging Information","Payment Tagging Information",,,16.2033149000,77.9954531000,"SHOP NO. 5-49/22,, PEBBAIR, WANAPARTHY, Telangana, 509104",,"30 Jan 2026 10:41:41 AM"
"Visit Note",10817585,Customer,18996784,"-- --","Jeevika khad bij Bhandar","Dhanora ,  , Pipleeghosi Khurd, Moradabad Division, Uttar Pradesh, India, 244251","Pipleeghosi Khurd",Retailer,No,28.916731500000,78.367159200000,2026-01-29,14:20:53,262197,Nishu,3728171,"Sales Rep",238122,"Ankit Singh _MORADABAD",A183-LUCKNOW,A183,"Customer Note","retailers visit",,,28.9167295,78.3671298,"W988+JWJ, Pipleeghosi Khurd, Uttar Pradesh 244251, India",2.86999,"30 Jan 2026 10:05:27 AM"
"End Day",3110270,Customer,0,"-- --","-- --","-- --","-- --",,No,,,2026-01-29,22:19:28,243065,"Rama Avdhut Wanare",3321821,"Sales Rep",239195,"Vikas nagre _BULDHANA",,,"Day Ended","Day Ended",,,20.8115639,76.2066857,,NA,"30 Jan 2026 09:24:59 AM"
Tourvisit,16145556,Customer,0,"-- --","-- --","-- --","-- --",,No,,,2026-01-29,21:33:58,243872,"Basymon M G",3308123,"Sales Rep",239812,"Vinu Kumar S _Pallakad",,,"End of the day","stop my duty ",,,11.6554867,76.1684718,"M549+6G6, Meenangadi, Kerala 673591, India",NA,"30 Jan 2026 09:22:51 AM"
Tourvisit,16145486,Customer,0,"-- --","-- --","-- --","-- --",,No,,,2026-01-29,20:07:30,276069,"Kishor Rajdhar Patil",3732336,"Sales Rep",263845,"Ananta Mankar_dhule",,,"End of the day","Sitare ",,,21.3902342,74.4051072,"9CR4+32H, Hol, Hol T. Ranale, Maharashtra 425411, India",NA,"30 Jan 2026 09:15:25 AM"
Workflow,34162647,Customer,17181289,0002021077,"2021077 - NATIONAL FERTILIZER CENTRE","Ground Floor 112 Leek Wala Talab Batala Gurdaspur, AMRITSAR, Gurdaspur, Punjab, India, 143505",AMRITSAR,DISTRIBUTOR,No,,,2026-01-29,18:16:22,238141,"kapil Tyagi_Amritsar",A75,"Territory Manager",238136,"Sandeep Kumar_BHATINDA",A123-Ludhiana,A123,"Payment Tagging Information","Payment Tagging Information",,,,,,NA,"30 Jan 2026 09:08:55 AM"
Workflow,34171204,Customer,16319252,0002020711,"2020711 - MODERN KHETI CENTRE","Shop No 6 Opposite Chitra Talkis. Chitra Talkies R, AMRITSAR, Amritsar, Punjab, India, 143001",AMRITSAR,DISTRIBUTOR,No,,,2026-01-29,18:15:41,238141,"kapil Tyagi_Amritsar",A75,"Territory Manager",238136,"Sandeep Kumar_BHATINDA",A123-Ludhiana,A123,"Payment Tagging Information","Payment Tagging Information",,,,,,NA,"30 Jan 2026 09:08:54 AM"
"Start Day",3123235,Customer,0,"-- --","-- --","-- --","-- --",,No,,,2026-01-29,10:54:05,263705,"Jaskaranpreet singh",3752514,"Sales Rep",238151,"Yatendera Rana_BARNALA",,,"Day Started","Day Started",,,30.2128222340647,75.7758668249426,,NA,"30 Jan 2026 09:04:53 AM"
Tourvisit,16145392,Customer,0,"-- --","-- --","-- --","-- --",,No,,,2026-01-29,10:54:15,263705,"Jaskaranpreet singh",3752514,"Sales Rep",238151,"Yatendera Rana_BARNALA",,,"Beginning of the day","start of the day ",,,30.2128222340647,75.7758668249426,,NA,"30 Jan 2026 09:04:43 AM"
"End Day",3110181,Customer,0,"-- --","-- --","-- --","-- --",,No,,,2026-01-29,21:36:57,270266,"Vivek M",3785350,"Sales Rep",239791,Vetrivel.G_ERODE,,,"Day Ended","Day Ended",,,11.3934484,76.7176098,,NA,"30 Jan 2026 08:43:40 AM"
Workflow,34200291,Customer,12795317,"-- --",Pali_SUMERPUR,street,"-- --","Farmer Group",No,,,2026-01-29,19:00:17,238420,"Ramakant Baghel",2949856,"Sales Rep",238107,"Jagat pal_Sumerpur",A201-JAIPUR,A201,"Organised Farmer Meeting","Organised Farmer Meeting",,,25.7578184,73.3211771,"Q85C+4F6, Goshala Rd, Keshav Nagar, Pali, Rajasthan 306401, India",NA,"30 Jan 2026 08:36:49 AM"
"End Day",3108806,Customer,0,"-- --","-- --","-- --","-- --",,No,,,2026-01-29,17:49:29,241153,"Nayan Sharma",2617926,"Sales Rep",241110,"Rajib Dey_Dibrugarh",,,"Day Ended","Day Ended",,,27.3719263,95.8960099,,NA,"30 Jan 2026 08:26:51 AM"
"End Day",3108612,Customer,0,"-- --","-- --","-- --","-- --",,No,,,2026-01-29,22:28:34,239470,"Firoj shaikh",2617903,"Sales Rep",239454,"Samdhan devkatte _Osmanabad",,,"Day Ended","Day Ended",,,17.6683361,75.9055231,,NA,"30 Jan 2026 08:16:35 AM"
"End Day",3108599,Customer,0,"-- --","-- --","-- --","-- --",,No,,,2026-01-29,19:27:02,261793,"HARINDER SINGH",,"Sales Rep",238147,"Shelendra kumar_MUKTSAR",,,"Day Ended","Day Ended",,,30.2795119,74.4817187,,NA,"30 Jan 2026 08:02:05 AM"
"End Day",3107848,Customer,0,"-- --","-- --","-- --","-- --",,No,,,2026-01-29,20:10:12,245321,"Shekhar Saini_Sumerpur",3363417,"Sales Rep",238107,"Jagat pal_Sumerpur",,,"Day Ended","Day Ended",,,27.1673989,77.2988777,,NA,"30 Jan 2026 07:48:50 AM"
"End Day",3107989,Customer,0,"-- --","-- --","-- --","-- --",,No,,,2026-01-29,23:21:32,280598,"Talasila Venkata Sai Krishna",,"Sales Rep",240515,"KARRI VINAY KUMAR SO_tenali",,,"Day Ended","Day Ended",,,16.2312179,80.6449952,,NA,"30 Jan 2026 07:20:24 AM"
"End Day",3108852,Customer,0,"-- --","-- --","-- --","-- --",,No,,,2026-01-29,20:08:50,279565,"TUMMETI SRIKANTH",3909092,"Sales Rep",240509,"Bareddy Venkateswarlu _Guntur",,,"Day Ended","Day Ended",,,16.3215627,80.4070345,,NA,"30 Jan 2026 07:18:30 AM"
"End Day",3110014,Customer,0,"-- --","-- --","-- --","-- --",,No,,,2026-01-29,22:06:44,246093,"Arunkumar Ambleppanavar_Hirekerur",3375986,"Sales Rep",237867,"vinayaka shidenur_davengere",,,"Day Ended","Day Ended",,,14.4244942,75.398541,,NA,"30 Jan 2026 07:18:28 AM"
"End Day",3109057,Customer,0,"-- --","-- --","-- --","-- --",,No,,,2026-01-29,21:20:26,279299,SINEKA.K,,"Sales Rep",239803,"Sowenderrajan L _Tirunelveli",,,"Day Ended","Day Ended",,,8.9111362,77.3797061,,NA,"30 Jan 2026 07:15:17 AM"
"End Day",3119694,Customer,0,"-- --","-- --","-- --","-- --",,No,,,2026-01-29,22:00:31,269603,"UPPARA SURESH",3778426,"Sales Rep",240520,"C.MADANNA _YEMMIGANUR",,,"Day Ended","Day Ended",,,,,,NA,"30 Jan 2026 05:16:46 AM"
"End Day",3119683,Customer,0,"-- --","-- --","-- --","-- --",,No,,,2026-01-29,21:54:53,263293,"DOBARIYA KEYUSH KISHORBHAI",3740114,"Sales Rep",239263,"mahek amreliya_Rajkot",,,"Day Ended","Day Ended",,,,,,NA,"30 Jan 2026 05:16:46 AM"
"End Day",3119652,Customer,0,"-- --","-- --","-- --","-- --",,No,,,2026-01-29,21:35:52,268410,"Pawan Patidar",3766187,"Sales Rep",242399,"VISHAL R_RATLAM",,,"Day Ended","Day Ended",,,23.4786633,75.1455009,,NA,"30 Jan 2026 05:16:46 AM"
"End Day",3119601,Customer,0,"-- --","-- --","-- --","-- --",,No,,,2026-01-29,22:15:19,281863,NAKUMUMANG,,"Sales Rep",239267,"Ashishkumar B. Bhanderi _Jamnagar",,,"Day Ended","Day Ended",,,21.9610538,69.8105336,,NA,"30 Jan 2026 05:16:45 AM"
"End Day",3119591,Customer,0,"-- --","-- --","-- --","-- --",,No,,,2026-01-29,20:58:05,281862,"PRASHANS DILIPBHAI KARABNGIYA",,"Sales Rep",239267,"Ashishkumar B. Bhanderi _Jamnagar",,,"Day Ended","Day Ended",,,21.9610462,69.8105175,,NA,"30 Jan 2026 05:16:45 AM"
"End Day",3119581,Customer,0,"-- --","-- --","-- --","-- --",,No,,,2026-01-29,20:45:29,242407,"Naveen Bopache_CHHINDWARA",D72,"Territory Manager",242326,"JAY SINGH SISODIYA_JABALPUR",,,"Day Ended","Day Ended",,,22.0956545,79.5895637,,NA,"30 Jan 2026 05:16:45 AM"
"End Day",3119524,Customer,0,"-- --","-- --","-- --","-- --",,No,,,2026-01-29,20:07:29,276069,"Kishor Rajdhar Patil",3732336,"Sales Rep",263845,"Ananta Mankar_dhule",,,"Day Ended","Day Ended",,,21.3902342,74.4051072,,NA,"30 Jan 2026 05:16:45 AM"
"End Day",3119395,Customer,0,"-- --","-- --","-- --","-- --",,No,,,2026-01-29,19:17:28,238114,"Digvijay Singh-East UP",,"Sales Manager",239601,"Vasundhara_AMM UP ",,,"Day Ended","Day Ended",,,26.7717031,80.9877719,,NA,"30 Jan 2026 05:16:44 AM"
"End Day",3119387,Customer,0,"-- --","-- --","-- --","-- --",,No,,,2026-01-29,19:14:07,253772,"Thigulla Vinod",3560944,"Sales Rep",240480,"Karru Shiroj Kumar_Badrachalam",,,"Day Ended","Day Ended",,,18.0779419,80.8247952,,NA,"30 Jan 2026 05:16:44 AM"
"End Day",3119385,Customer,0,"-- --","-- --","-- --","-- --",,No,,,2026-01-29,20:45:09,242416,"BIDHU KALYANKAR_BHUBANESHWAR",702430,"Sales Manager",241248,"Suman Dutta",,,"Day Ended","Day Ended",,,20.2199706,85.8485925,,NA,"30 Jan 2026 05:16:44 AM"
"End Day",3119329,Customer,0,"-- --","-- --","-- --","-- --",,No,,,2026-01-29,18:46:29,240666,"Bera Sharath Chandra Kiran",,"Sales Manager",240660,"Pothireddy Narasimha reddy - Hyderabad",,,"Day Ended","Day Ended",,,19.6627154,78.5324922,,NA,"30 Jan 2026 05:16:43 AM"
"End Day",3119277,Customer,0,"-- --","-- --","-- --","-- --",,No,,,2026-01-29,18:39:23,242409,"DEBADATTA SAMAL_BARGARH",A40,"Territory Manager",242327,Vacant_BARGARH,,,"Day Ended","Day Ended",,,21.3451545,83.6277328,,NA,"30 Jan 2026 05:16:43 AM"
"End Day",3119213,Customer,0,"-- --","-- --","-- --","-- --",,No,,,2026-01-29,19:28:00,242445,"MANAS RANJAN JENA",2570476,"Sales Rep",242330,"Vacant BIDHU KALYANKAR_BHUBNESHWAR",,,"Day Ended","Day Ended",,,20.1312802,85.9704464,,NA,"30 Jan 2026 05:16:42 AM"
"End Day",3119201,Customer,0,"-- --","-- --","-- --","-- --",,No,,,2026-01-29,18:05:03,276072,"Swapnil Khade",2617865,"Sales Rep",238969,"Vacant Po _Mukutban",,,"Day Ended","Day Ended",,,20.1024876,78.8074229,,NA,"30 Jan 2026 05:16:42 AM"
"End Day",3119198,Customer,0,"-- --","-- --","-- --","-- --",,No,,,2026-01-29,18:03:19,240512,"Atla Siva Krishnareddy_Macherla",C09,"Territory Manager",240508,"Murali G _guntur",,,"Day Ended","Day Ended",,,,,,NA,"30 Jan 2026 05:16:42 AM"
"End Day",3119113,Customer,0,"-- --","-- --","-- --","-- --",,No,,,2026-01-29,17:44:28,240480,"Karru Shiroj Kumar_Badrachalam",B30,"Territory Manager",240476,"U chandrasekhar_warangal",,,"Day Ended","Day Ended",,,18.2753146,79.7658304,,NA,"30 Jan 2026 05:16:41 AM"
"End Day",3119112,Customer,0,"-- --","-- --","-- --","-- --",,No,,,2026-01-29,18:45:04,238171,"ANIL KUMAR _Fatehabad",B33,"Territory Manager",238159,Mohit_TL,,,"Day Ended","Day Ended",,,29.4931455,75.5367286,,NA,"30 Jan 2026 05:16:41 AM"
"End Day",3119092,Customer,0,"-- --","-- --","-- --","-- --",,No,,,2026-01-29,18:05:12,241115,"SANDIP CHOWDHURY_Guwahati",708831,"Sales Manager",241196,"SAPTARSI CHAKRABORTY_AMM",,,"Day Ended","Day Ended",,,26.354418,92.69675,,NA,"30 Jan 2026 05:16:41 AM"
"End Day",3119050,Customer,0,"-- --","-- --","-- --","-- --",,No,,,2026-01-29,17:25:58,238148,"ZIAUL HAQUE _MANSA",A94,"Territory Manager",239596,"Vacant TL_Punjab",,,"Day Ended","Day Ended",,,,,,NA,"30 Jan 2026 05:16:41 AM"
"End Day",3119034,Customer,0,"-- --","-- --","-- --","-- --",,No,,,2026-01-29,17:19:49,239174,"Sachin Pandav_Parbhani",C75,"Territory Manager",263562,"Purushottam Ghatode_Marathwada",,,"Day Ended","Day Ended",,,19.25756,76.7804124,,NA,"30 Jan 2026 05:16:41 AM"
"End Day",3119030,Customer,0,"-- --","-- --","-- --","-- --",,No,,,2026-01-29,17:45:19,239442,"Mangesh Bhosale_Pandharpur",A22,"Territory Manager",239426,"Vijay Babar_TL Sangli",,,"Day Ended","Day Ended",,,16.0352999,73.484752,,NA,"30 Jan 2026 05:16:40 AM"
"End Day",3119014,Customer,0,"-- --","-- --","-- --","-- --",,No,,,2026-01-29,18:04:23,242396,"CHANDRAPAL SHEKHAWAT_INDORE",D69,"Territory Manager",242323,"SHAILENDRA SOLANKHI_INDORE",,,"Day Ended","Day Ended",,,22.9619624,76.0463943,,NA,"30 Jan 2026 05:16:40 AM"
"End Day",3118998,Customer,0,"-- --","-- --","-- --","-- --",,No,,,2026-01-29,17:07:22,241097,"Krishna Kumar_Muzaffarpur",D26,"Territory Manager",241093,"Amit Kumar_Patna",,,"Day Ended","Day Ended",,,26.3071643,85.2678187,,NA,"30 Jan 2026 05:16:40 AM"
"End Day",3118974,Customer,0,"-- --","-- --","-- --","-- --",,No,,,2026-01-29,17:01:30,271122,"Ajay Patel",3786447,"Sales Rep",238127,"Rohit Gaur_Agra",,,"Day Ended","Day Ended",,,,,,NA,"30 Jan 2026 05:16:40 AM"
"End Day",3118957,Customer,0,"-- --","-- --","-- --","-- --",,No,,,2026-01-29,21:59:36,238127,"Rohit Gaur_Agra",A55,"Territory Manager",238113,"vacant-TL-Western UP",,,"Day Ended","Day Ended",,,27.2373126,79.2539879,,NA,"30 Jan 2026 05:16:40 AM"
"End Day",3118953,Customer,0,"-- --","-- --","-- --","-- --",,No,,,2026-01-29,16:57:28,241161,"Akbar Ali",3170941,"Sales Rep",241116,"Mithun Roy_Kharupetia",,,"Day Ended","Day Ended",,,26.523586,92.1522029,,NA,"30 Jan 2026 05:16:40 AM"
"End Day",3118940,Customer,0,"-- --","-- --","-- --","-- --",,No,,,2026-01-29,17:32:22,238149,"Vinod Kumar Chaubey_PATIALA",A92,"Territory Manager",238136,"Sandeep Kumar_BHATINDA",,,"Day Ended","Day Ended",,,,,,NA,"30 Jan 2026 05:16:40 AM"
"End Day",3118902,Customer,0,"-- --","-- --","-- --","-- --",,No,,,2026-01-29,20:57:05,239807,"JEEVA RAMALINGAM_SALEM",8104244,"Sales Manager",239760,"Vacant AMM_SWR1 (TN, KL)",,,"Day Ended","Day Ended",,,10.6782819000,77.2168981000,,NA,"30 Jan 2026 05:16:40 AM"
"End Day",3118791,Customer,0,"-- --","-- --","-- --","-- --",,No,,,2026-01-29,16:40:50,243965,"Mohit Suryawanshi",3325119,"Sales Rep",242407,"Naveen Bopache_CHHINDWARA",,,"Day Ended","Day Ended",,,,,,NA,"30 Jan 2026 05:16:39 AM"
"End Day",3118608,Customer,0,"-- --","-- --","-- --","-- --",,No,,,2026-01-29,15:56:44,241135,"Md Kaif Ahamed",3145497,"Sales Rep",245026,"Sabuj Maiti_Barasat",,,"Day Ended","Day Ended",,,22.5143243,88.613556,,NA,"30 Jan 2026 05:16:37 AM"
"End Day",3118587,Customer,0,"-- --","-- --","-- --","-- --",,No,,,2026-01-29,16:40:31,282500,"Saif _ABOHAR",,"Sales Manager",239596,"Vacant TL_Punjab",,,"Day Ended","Day Ended",,,30.3744188,74.0489865,,NA,"30 Jan 2026 05:16:37 AM"
"End Day",3118459,Customer,0,"-- --","-- --","-- --","-- --",,No,,,2026-01-29,16:50:40,241198,"MD HAFIJUR RAHAMAN_MALDA",K1,"Territory Manager",241109,"Mohit Kumar Saha_Corporate Tea",,,"Day Ended","Day Ended",,,24.8611079,88.0198981,,NA,"30 Jan 2026 05:16:36 AM"
"End Day",3118435,Customer,0,"-- --","-- --","-- --","-- --",,No,,,2026-01-29,17:26:41,263438,"Manish Verma_jhansi",B59,"Territory Manager",238114,"Digvijay Singh-East UP",,,"Day Ended","Day Ended",,,25.5742052,78.8179008,,NA,"30 Jan 2026 05:16:36 AM"
"End Day",3118330,Customer,0,"-- --","-- --","-- --","-- --",,No,,,2026-01-29,15:23:59,271703,"Dharmendra Malviya",,"Sales Manager",242328,"ADITYA KUMAR_RAIPUR",,,"Day Ended","Day Ended",,,,,,NA,"30 Jan 2026 05:16:35 AM"
"End Day",3118163,Customer,0,"-- --","-- --","-- --","-- --",,No,,,2026-01-29,16:32:10,241109,"Mohit Kumar Saha_Corporate Tea",G103680,"Sales Manager",241196,"SAPTARSI CHAKRABORTY_AMM",,,"Day Ended","Day Ended",,,26.2573944000,88.1919329000,,NA,"30 Jan 2026 05:16:34 AM"
"End Day",3118156,Customer,0,"-- --","-- --","-- --","-- --",,No,,,2026-01-29,15:14:40,270281,"Rajkumar Babruwan Mane",3785917,"Sales Rep",239454,"Samdhan devkatte _Osmanabad",,,"Day Ended","Day Ended",,,18.0092073,76.0710171,,NA,"30 Jan 2026 05:16:34 AM"
"End Day",3118124,Customer,0,"-- --","-- --","-- --","-- --",,No,,,2026-01-29,20:01:05,241101,"Susovan Ghosh_West Medinipur",B19,"Territory Manager",241098,"Sumit Sarkar_South Bengal",,,"Day Ended","Day Ended",,,22.4104957,87.7115863,,NA,"30 Jan 2026 05:16:34 AM"
"End Day",3118104,Customer,0,"-- --","-- --","-- --","-- --",,No,,,2026-01-29,18:30:20,238967,"sandip phopase_Yavatmal",,"Sales Manager",239170,"Nilesh kankewar_Marathwada",,,"Day Ended","Day Ended",,,,,,NA,"30 Jan 2026 05:16:34 AM"
"End Day",3117915,Customer,0,"-- --","-- --","-- --","-- --",,No,,,2026-01-29,14:37:51,238138,"ATUL KUMAR PANDEY_KHANNA",A61,"Territory Manager",238136,"Sandeep Kumar_BHATINDA",,,"Day Ended","Day Ended",,,30.8967248,76.2519451,,NA,"30 Jan 2026 05:16:32 AM"
"End Day",3117809,Customer,0,"-- --","-- --","-- --","-- --",,No,,,2026-01-29,14:30:05,238095,"Arun Kumar Pathak (RJ)",,"Sales Manager",241682,"Rajat Sharma_AMM_North2",,,"Day Ended","Day Ended",,,26.9093449,75.7271413,,NA,"30 Jan 2026 05:16:32 AM"
"End Day",3117782,Customer,0,"-- --","-- --","-- --","-- --",,No,,,2026-01-29,14:27:49,242402,"AMIT TIWARI_DHAR",D56,"Territory Manager",242324,"Javed Khan Nimar_KHARGONE",,,"Day Ended","Day Ended",,,22.6638289,75.4403537,,NA,"30 Jan 2026 05:16:31 AM"
"End Day",3117709,Customer,0,"-- --","-- --","-- --","-- --",,No,,,2026-01-29,15:24:55,242399,"VISHAL R_RATLAM",D73,"Territory Manager",242323,"SHAILENDRA SOLANKHI_INDORE",,,"Day Ended","Day Ended",,,23.3365791,75.051508,,NA,"30 Jan 2026 05:16:31 AM"
"End Day",3117432,Customer,0,"-- --","-- --","-- --","-- --",,No,,,2026-01-29,14:03:51,251859,"Diwakar Sharma_",3441255,"Sales Rep",242406,"Sonu Dhakad_JABALPUR",,,"Day Ended","Day Ended",,,23.2076672,79.9117066,,NA,"30 Jan 2026 05:16:29 AM"
"End Day",3117400,Customer,0,"-- --","-- --","-- --","-- --",,No,,,2026-01-29,22:49:06,238121,"Jai Prakash mishra_Faizabad",B51,"Territory Manager",238114,"Digvijay Singh-East UP",,,"Day Ended","Day Ended",,,26.5960787,82.0856082,,NA,"30 Jan 2026 05:16:29 AM"
"End Day",3117397,Customer,0,"-- --","-- --","-- --","-- --",,No,,,2026-01-29,14:01:44,271928,"MENIYA JAYDEEP THAKARSHIBHAI	",3797489,"Sales Rep",239263,"mahek amreliya_Rajkot",,,"Day Ended","Day Ended",,,22.090157,71.045275,,NA,"30 Jan 2026 05:16:29 AM"
"End Day",3117099,Customer,0,"-- --","-- --","-- --","-- --",,No,,,2026-01-29,13:48:54,241199,"GAUTAM  CHAUDHURI_ISLAMPUR",D15,"Territory Manager",241109,"Mohit Kumar Saha_Corporate Tea",,,"Day Ended","Day Ended",,,26.2574488,88.1919736,,NA,"30 Jan 2026 05:16:27 AM"
"End Day",3117079,Customer,0,"-- --","-- --","-- --","-- --",,No,,,2026-01-29,19:43:20,238163,"Mukesh lohani_AMBALA",A12,"Territory Manager",238247,"Vacant TL-Krishan Kumar Pathak",,,"Day Ended","Day Ended",,,29.9702939,76.8567281,,NA,"30 Jan 2026 05:16:26 AM"
"End Day",3116811,Customer,0,"-- --","-- --","-- --","-- --",,No,,,2026-01-29,13:39:39,242404,"Pankaj Singh Bisht_SHIVPURI",B27,"Territory Manager",242325,"Gaurav Kandpal_BHOPAL",,,"Day Ended","Day Ended",,,26.5970868,77.9402087,,NA,"30 Jan 2026 05:16:25 AM"
"End Day",3116122,Customer,0,"-- --","-- --","-- --","-- --",,No,,,2026-01-29,23:38:07,241098,"Sumit Sarkar_South Bengal",G104308,"Sales Manager",241248,"Suman Dutta",,,"Day Ended","Day Ended",,,,,,NA,"30 Jan 2026 05:16:20 AM"
"End Day",3115875,Customer,0,"-- --","-- --","-- --","-- --",,No,,,2026-01-29,13:11:05,238962,"Kunal Gawande _Nagpur",A24,"Territory Manager",238961,"Akshay Yeware _Vidarbha",,,"Day Ended","Day Ended",,,21.1795717,78.9864017,,NA,"30 Jan 2026 05:16:18 AM"
"End Day",3115702,Customer,0,"-- --","-- --","-- --","-- --",,No,,,2026-01-29,17:47:11,231722,"Pushpa B P_MYSORE",D8,"Territory Manager",231716,"HariHara MurthyN-BANGALOR",,,"Day Ended","Day Ended",,,12.3211011,76.6092825,,NA,"30 Jan 2026 05:16:17 AM"
"End Day",3115308,Customer,0,"-- --","-- --","-- --","-- --",,No,,,2026-01-29,19:55:41,239812,"Vinu Kumar S _Pallakad",B05,"Territory Manager",239800,"MUTHUMANI K-TRICHY",,,"Day Ended","Day Ended",,,10.7743639849309,76.6821532991587,,NA,"30 Jan 2026 05:16:15 AM"
"End Day",3115214,Customer,0,"-- --","-- --","-- --","-- --",,No,,,2026-01-29,13:45:04,241103,"Pritam Dey_Hooghly",D03,"Territory Manager",241098,"Sumit Sarkar_South Bengal",,,"Day Ended","Day Ended",,,23.0090276,87.5964882,,NA,"30 Jan 2026 05:16:14 AM"
"End Day",3115040,Customer,0,"-- --","-- --","-- --","-- --",,No,,,2026-01-29,19:57:52,250600,"Nitin Singh_Moosanagar",3454089,"Sales Rep",238125,"Raghvendra Singh_KANPUR",,,"Day Ended","Day Ended",,,26.4484837,80.2795902,,NA,"30 Jan 2026 05:16:13 AM"
"End Day",3114975,Customer,0,"-- --","-- --","-- --","-- --",,No,,,2026-01-29,18:46:17,241197,"Masud Rijwan_BERHAMPORE",D18,"Territory Manager",241098,"Sumit Sarkar_South Bengal",,,"Day Ended","Day Ended",,,23.9031603,88.4576778,,NA,"30 Jan 2026 05:16:13 AM"
"End Day",3114912,Customer,0,"-- --","-- --","-- --","-- --",,No,,,2026-01-29,17:23:48,263871,"BALVINDER SINGH",3750499,"Sales Rep",238111,"Davinder Singh_Sri Ganganagar",,,"Day Ended","Day Ended",,,29.9130513,73.8729532,,NA,"30 Jan 2026 05:16:12 AM"
"End Day",3114798,Customer,0,"-- --","-- --","-- --","-- --",,No,,,2026-01-29,21:02:33,238151,"Yatendera Rana_BARNALA",A64,"Territory Manager",239596,"Vacant TL_Punjab",,,"Day Ended","Day Ended",,,30.3652205,75.5305875,,NA,"30 Jan 2026 05:16:12 AM"
"End Day",3114708,Customer,0,"-- --","-- --","-- --","-- --",,No,,,2026-01-29,19:10:53,239265,"Jaywant Wable_Surendranagar",D53,"Territory Manager",239259,"Chetanbhai Prajapati_Gujarat",,,"Day Ended","Day Ended",,,23.0051014,71.1856571,,NA,"30 Jan 2026 05:16:11 AM"
"End Day",3114643,Customer,0,"-- --","-- --","-- --","-- --",,No,,,2026-01-29,21:19:56,281127,"CHALLA KOTESWARA RAO",3934965,"Sales Rep",240512,"Atla Siva Krishnareddy_Macherla",,,"Day Ended","Day Ended",,,,,,NA,"30 Jan 2026 05:16:10 AM"
"End Day",3114604,Customer,0,"-- --","-- --","-- --","-- --",,No,,,2026-01-29,13:18:08,273446,"BEANT SINGH",3804724,"Sales Rep",238138,"ATUL KUMAR PANDEY_KHANNA",,,"Day Ended","Day Ended",,,,,,NA,"30 Jan 2026 05:16:10 AM"
"End Day",3114513,Customer,0,"-- --","-- --","-- --","-- --",,No,,,2026-01-29,16:22:32,252719,"KUSHAL DEY_Birnagar",3510478,"Sales Rep",241099,"Sribash Kumar Mallick_krishnanagar",,,"Day Ended","Day Ended",,,23.3553067,88.6439833,,NA,"30 Jan 2026 05:16:10 AM"
"End Day",3114505,Customer,0,"-- --","-- --","-- --","-- --",,No,,,2026-01-29,12:23:27,239013,"Rahul Dorle_Pusad",H3,"Territory Manager",239170,"Nilesh kankewar_Marathwada",,,"Day Ended","Day Ended",,,20.359037,77.5983815,,NA,"30 Jan 2026 05:16:10 AM"
"End Day",3114318,Customer,0,"-- --","-- --","-- --","-- --",,No,,,2026-01-29,20:25:24,253210,"Anupama  Pandey",3484949,"Sales Rep",242400,"Dinesh singh ginnare_KHARGONE",,,"Day Ended","Day Ended",,,21.833752,75.634037,,NA,"30 Jan 2026 05:16:08 AM"
"End Day",3114280,Customer,0,"-- --","-- --","-- --","-- --",,No,,,2026-01-29,12:11:29,250603,"Md Maruf  Billah_Pakapole",3453115,"Sales Rep",245026,"Sabuj Maiti_Barasat",,,"Day Ended","Day Ended",,,22.4981939,88.6009404,,NA,"30 Jan 2026 05:16:08 AM"
"End Day",3114253,Customer,0,"-- --","-- --","-- --","-- --",,No,,,2026-01-29,21:55:21,270283,"ERRAM RAJU",3784362,"Sales Rep",240667,"VARANASI VAMSI KUMAR REDDY _Gajwel",,,"Day Ended","Day Ended",,,18.2374653,78.8251488,,NA,"30 Jan 2026 05:16:08 AM"
"End Day",3114215,Customer,0,"-- --","-- --","-- --","-- --",,No,,,2026-01-29,12:08:53,244942,"Sushil mandal_Rajganj",3350092,"Sales Rep",241199,"GAUTAM  CHAUDHURI_ISLAMPUR",,,"Day Ended","Day Ended",,,26.5307317,88.5897738,,NA,"30 Jan 2026 05:16:07 AM"
"End Day",3114205,Customer,0,"-- --","-- --","-- --","-- --",,No,,,2026-01-29,22:13:56,242401,"Manoj Chouhan_KHANDWA",B02,"Territory Manager",242324,"Javed Khan Nimar_KHARGONE",,,"Day Ended","Day Ended",,,21.8440875,76.3471131,,NA,"30 Jan 2026 05:16:07 AM"
"End Day",3114128,Customer,0,"-- --","-- --","-- --","-- --",,No,,,2026-01-29,12:29:51,238816,"Pranshu Verma_HOSHIARPUR",A66,"Territory Manager",238136,"Sandeep Kumar_BHATINDA",,,"Day Ended","Day Ended",,,31.0837807,75.3276232,,NA,"30 Jan 2026 05:16:06 AM"
"End Day",3114125,Customer,0,"-- --","-- --","-- --","-- --",,No,,,2026-01-29,12:04:05,277862,Domalapalli.Nagesh,3882776,"Sales Rep",240670,"sushma Chigurupati_Nalgonda",,,"Day Ended","Day Ended",,,16.8751329,79.5673575,,NA,"30 Jan 2026 05:16:06 AM"
"End Day",3114112,Customer,0,"-- --","-- --","-- --","-- --",,No,,,2026-01-29,19:00:35,238118,"Rohit Kharwar _ALIGARH",A56,"Territory Manager",238113,"vacant-TL-Western UP",,,"Day Ended","Day Ended",,,27.8812607,78.1310298,,NA,"30 Jan 2026 05:16:06 AM"
"End Day",3114110,Customer,0,"-- --","-- --","-- --","-- --",,No,,,2026-01-29,12:03:37,274158,"Shrikant chindhu halade",3805592,"Sales Rep",239249,prashant_Sangamner,,,"Day Ended","Day Ended",,,19.89645,74.365435,,NA,"30 Jan 2026 05:16:06 AM"
"End Day",3114109,Customer,0,"-- --","-- --","-- --","-- --",,No,,,2026-01-29,12:27:33,271206,"Ravindra Tanvar",3782872,"Sales Rep",242400,"Dinesh singh ginnare_KHARGONE",,,"Day Ended","Day Ended",,,,,,NA,"30 Jan 2026 05:16:06 AM"
"End Day",3114048,Customer,0,"-- --","-- --","-- --","-- --",,No,,,2026-01-29,13:47:38,269558,"SALEEM KHAN",3777089,"Sales Rep",238104,"shashikant maury_Jaipur",,,"Day Ended","Day Ended",,,27.3510143,76.6715849,,NA,"30 Jan 2026 05:16:06 AM"
"End Day",3114013,Customer,0,"-- --","-- --","-- --","-- --",,No,,,2026-01-29,19:36:31,241093,"Amit Kumar_Patna",,"Sales Manager",241196,"SAPTARSI CHAKRABORTY_AMM",,,"Day Ended","Day Ended",,,26.3569583000,87.2272982000,,NA,"30 Jan 2026 05:16:05 AM"
"End Day",3113957,Customer,0,"-- --","-- --","-- --","-- --",,No,,,2026-01-29,14:52:43,282341,"Uma Jyoti",,"Sales Rep",241096,"Vacant D16_Samastipur",,,"Day Ended","Day Ended",,,25.8512765,85.6553099,,NA,"30 Jan 2026 05:16:05 AM"
"End Day",3113955,Customer,0,"-- --","-- --","-- --","-- --",,No,,,2026-01-29,18:11:55,238108,"Dheeraj  singh_Hanumangarh",B24,"Territory Manager",238098,"Vacant-TL-North Rajasthan",,,"Day Ended","Day Ended",,,29.577671,74.3329673,,NA,"30 Jan 2026 05:16:05 AM"
"End Day",3113612,Customer,0,"-- --","-- --","-- --","-- --",,No,,,2026-01-29,21:23:50,242411,"Lokesh Bhairam_DURG",D78,"Territory Manager",271703,"Dharmendra Malviya",,,"Day Ended","Day Ended",,,21.0961614,81.0286073,,NA,"30 Jan 2026 05:16:01 AM"
"End Day",3113607,Customer,0,"-- --","-- --","-- --","-- --",,No,,,2026-01-29,23:42:24,239443,"Satyajit Todkar_Kolhapur",A23,"Territory Manager",239426,"Vijay Babar_TL Sangli",,,"Day Ended","Day Ended",,,16.6914378000,74.1798517000,,NA,"30 Jan 2026 05:16:01 AM"
"End Day",3113598,Customer,0,"-- --","-- --","-- --","-- --",,No,,,2026-01-29,17:48:01,238123,"Manish Singh_VARANASI",B46,"Territory Manager",238114,"Digvijay Singh-East UP",,,"Day Ended","Day Ended",,,25.3910626,83.0229278,,NA,"30 Jan 2026 05:16:01 AM"
"End Day",3113594,Customer,0,"-- --","-- --","-- --","-- --",,No,,,2026-01-29,11:33:52,231725,"Dhananjay Ushir_PIMPALGAON BASVANT",B40,"Territory Manager",231718,D.DHOMSE_Nashik,,,"Day Ended","Day Ended",,,20.2297122,73.9195779,,NA,"30 Jan 2026 05:16:01 AM"
"End Day",3113584,Customer,0,"-- --","-- --","-- --","-- --",,No,,,2026-01-29,14:50:03,271529,"Sanu Ali",3800468,"Sales Rep",238120,"shubham Gupta_KICHHA",,,"Day Ended","Day Ended",,,28.8349352,79.0340153,,NA,"30 Jan 2026 05:16:00 AM"
"End Day",3113580,Customer,0,"-- --","-- --","-- --","-- --",,No,,,2026-01-29,18:14:10,243964,"Sailendra Sharma",3325118,"Sales Rep",242406,"Sonu Dhakad_JABALPUR",,,"Day Ended","Day Ended",,,22.9393015,79.2061758,,NA,"30 Jan 2026 05:16:00 AM"
"End Day",3113566,Customer,0,"-- --","-- --","-- --","-- --",,No,,,2026-01-29,23:03:35,242406,"Sonu Dhakad_JABALPUR",D59,"Territory Manager",242326,"JAY SINGH SISODIYA_JABALPUR",,,"Day Ended","Day Ended",,,23.2203824,79.8942118,,NA,"30 Jan 2026 05:16:00 AM"
"End Day",3113539,Customer,0,"-- --","-- --","-- --","-- --",,No,,,2026-01-29,23:07:21,276073,"Suraj Ramesh Bajanlawar",2617925,"Sales Rep",238969,"Vacant Po _Mukutban",,,"Day Ended","Day Ended",,,,,,NA,"30 Jan 2026 05:16:00 AM"
"End Day",3113528,Customer,0,"-- --","-- --","-- --","-- --",,No,,,2026-01-29,20:03:51,283211,"Naveen Katla_Temp",,"Sales Manager",240661,"GANESH MALLEPULA _KARIMNAGAR",,,"Day Ended","Day Ended",,,18.8741804,79.4472858,,NA,"30 Jan 2026 05:16:00 AM"
"End Day",3113519,Customer,0,"-- --","-- --","-- --","-- --",,No,,,2026-01-29,18:46:23,231721,"Mahesh R_KOLAR",C15,"Territory Manager",231716,"HariHara MurthyN-BANGALOR",,,"Day Ended","Day Ended",,,13.6252753,78.1952519,,NA,"30 Jan 2026 05:16:00 AM"
"End Day",3113518,Customer,0,"-- --","-- --","-- --","-- --",,No,,,2026-01-29,11:46:36,238697,"Jitendra Kumar",2806715,"Sales Rep",238148,"ZIAUL HAQUE _MANSA",,,"Day Ended","Day Ended",,,30.0655939,75.228614,,NA,"30 Jan 2026 05:16:00 AM"
"End Day",3113515,Customer,0,"-- --","-- --","-- --","-- --",,No,,,2026-01-29,15:04:16,239263,"mahek amreliya_Rajkot",B22,"Territory Manager",239259,"Chetanbhai Prajapati_Gujarat",,,"Day Ended","Day Ended",,,,,,NA,"30 Jan 2026 05:16:00 AM"
"End Day",3113442,Customer,0,"-- --","-- --","-- --","-- --",,No,,,2026-01-29,11:26:06,283538,"sapana rathor",,"Sales Rep",242406,"Sonu Dhakad_JABALPUR",,,"Day Ended","Day Ended",,,22.956885,79.1802583,,NA,"30 Jan 2026 05:15:59 AM"
"End Day",3113416,Customer,0,"-- --","-- --","-- --","-- --",,No,,,2026-01-29,18:54:23,239267,"Ashishkumar B. Bhanderi _Jamnagar",B06,"Territory Manager",239259,"Chetanbhai Prajapati_Gujarat",,,"Day Ended","Day Ended",,,22.5357784,70.425685,,NA,"30 Jan 2026 05:15:59 AM"
"End Day",3113414,Customer,0,"-- --","-- --","-- --","-- --",,No,,,2026-01-29,16:37:46,263164,"prakhar kumar singh ",,"Sales Rep",242410,"Roshani Bisen_MAHASAMUND",,,"Day Ended","Day Ended",,,21.2134467,81.6264467,,NA,"30 Jan 2026 05:15:59 AM"
"End Day",3113412,Customer,0,"-- --","-- --","-- --","-- --",,No,,,2026-01-29,11:24:21,274318,"M SUMAN",3820913,"Sales Rep",262716,"Bommareddy Satyanarayana Reddy_nizamabad",,,"Day Ended","Day Ended",,,18.8574284,78.1258034,,NA,"30 Jan 2026 05:15:59 AM"
"End Day",3113295,Customer,0,"-- --","-- --","-- --","-- --",,No,,,2026-01-29,19:24:30,239231,"Yogesh Kadam_Narayangaon",C65,"Territory Manager",239230,"Vacant TL_Pune",,,"Day Ended","Day Ended",,,18.9726583,73.9434067,,NA,"30 Jan 2026 05:15:58 AM"
"End Day",3113282,Customer,0,"-- --","-- --","-- --","-- --",,No,,,2026-01-29,11:15:11,276076,"Akshay Hage",2629931,"Sales Rep",239009,"Vacant PO_Paratwada",,,"Day Ended","Day Ended",,,21.1654565,77.3128982,,NA,"30 Jan 2026 05:15:58 AM"
"End Day",3113276,Customer,0,"-- --","-- --","-- --","-- --",,No,,,2026-01-29,11:14:58,276622,"Md Milon Hossain",,"Sales Rep",241197,"Masud Rijwan_BERHAMPORE",,,"Day Ended","Day Ended",,,24.1353554,88.3447053,,NA,"30 Jan 2026 05:15:58 AM"
"End Day",3113183,Customer,0,"-- --","-- --","-- --","-- --",,No,,,2026-01-29,14:48:42,270078,"Kajal patel",3776538,"Sales Rep",238130,"Mohit Kumar Tomar_Hapur",,,"Day Ended","Day Ended",,,28.4106845,78.1039957,,NA,"30 Jan 2026 05:15:57 AM"
"End Day",3113147,Customer,0,"-- --","-- --","-- --","-- --",,No,,,2026-01-29,11:08:26,262503,"Bhupindre Singh",3729824,"Sales Rep",238141,"kapil Tyagi_Amritsar",,,"Day Ended","Day Ended",,,31.5876083,75.0543612,,NA,"30 Jan 2026 05:15:56 AM"
"End Day",3113144,Customer,0,"-- --","-- --","-- --","-- --",,No,,,2026-01-29,15:31:41,238130,"Mohit Kumar Tomar_Hapur",A69,"Territory Manager",238113,"vacant-TL-Western UP",,,"Day Ended","Day Ended",,,28.6843875,77.5194394,,NA,"30 Jan 2026 05:15:56 AM"
"End Day",3113133,Customer,0,"-- --","-- --","-- --","-- --",,No,,,2026-01-29,16:18:27,238116,"Shailendra Pratap Singh_BAREILLY",F8,"Territory Manager",238113,"vacant-TL-Western UP",,,"Day Ended","Day Ended",,,28.0088704,79.0518418,,NA,"30 Jan 2026 05:15:56 AM"
"End Day",3113132,Customer,0,"-- --","-- --","-- --","-- --",,No,,,2026-01-29,12:09:40,240566,"Kurhini Sai charan",3200025,"Sales Rep",240478,"Annasamudram Nandan kamesh _Mahabubabad",,,"Day Ended","Day Ended",,,17.3841417,79.896265,,NA,"30 Jan 2026 05:15:56 AM"
"End Day",3113119,Customer,0,"-- --","-- --","-- --","-- --",,No,,,2026-01-29,20:44:27,240519,"M SUBBA REDDY_proddatur",C31,"Territory Manager",240516,"Levidi Manikya Reddy_Kurnool",,,"Day Ended","Day Ended",,,14.7613501,78.5697659,,NA,"30 Jan 2026 05:15:56 AM"
"End Day",3113107,Customer,0,"-- --","-- --","-- --","-- --",,No,,,2026-01-29,21:24:39,239765,"Sakthivel B _Kancheepuram",A49,"Territory Manager",239762,"KISHOKAR P_KANCHEEPURAM",,,"Day Ended","Day Ended",,,12.8389521,79.7135774,,NA,"30 Jan 2026 05:15:56 AM"
"End Day",3113098,Customer,0,"-- --","-- --","-- --","-- --",,No,,,2026-01-29,11:06:11,259672,Gurumurthyreddy.R,3666606,"Sales Rep",231721,"Mahesh R_KOLAR",,,"Day Ended","Day Ended",,,12.9452583,78.16207,,NA,"30 Jan 2026 05:15:56 AM"
"End Day",3113083,Customer,0,"-- --","-- --","-- --","-- --",,No,,,2026-01-29,19:45:56,238174,"Vishnu tiwari _Rohtak",A09,"Territory Manager",238159,Mohit_TL,,,"Day Ended","Day Ended",,,28.8992564,76.6276899,,NA,"30 Jan 2026 05:15:56 AM"
"End Day",3113062,Customer,0,"-- --","-- --","-- --","-- --",,No,,,2026-01-29,15:36:09,240670,"sushma Chigurupati_Nalgonda",C17,"Territory Manager",240666,"Bera Sharath Chandra Kiran",,,"Day Ended","Day Ended",,,17.0372811,79.2624131,,NA,"30 Jan 2026 05:15:56 AM"
"End Day",3113061,Customer,0,"-- --","-- --","-- --","-- --",,No,,,2026-01-29,11:05:08,238579,"prajkta patil "," G108720 ","Sales Manager",231717,Vacant-WRG2,,,"Day Ended","Day Ended",,,19.9566082,73.768261,,NA,"30 Jan 2026 05:15:56 AM"
"End Day",3112930,Customer,0,"-- --","-- --","-- --","-- --",,No,,,2026-01-29,21:22:13,241114,"Arnab Halder_Kolkata",K3,"Territory Manager",241109,"Mohit Kumar Saha_Corporate Tea",,,"Day Ended","Day Ended",,,22.5249866,88.3979077,,NA,"30 Jan 2026 05:15:54 AM"
"End Day",3112742,Customer,0,"-- --","-- --","-- --","-- --",,No,,,2026-01-29,21:11:50,281890,"LOKANTHU LOKESH_Vijayawada",,"Territory Manager",240482,"PARISE VENKATA CHALAPATHI RAO_Vijayawada",,,"Day Ended","Day Ended",,,16.4854826,80.6192735,,NA,"30 Jan 2026 05:15:53 AM"
"End Day",3112702,Customer,0,"-- --","-- --","-- --","-- --",,No,,,2026-01-29,11:43:11,270277,"Puralal makwana (CA)",3784401,"Sales Rep",242396,"CHANDRAPAL SHEKHAWAT_INDORE",,,"Day Ended","Day Ended",,,22.9265712,75.8790107,,NA,"30 Jan 2026 05:15:52 AM"
"End Day",3112686,Customer,0,"-- --","-- --","-- --","-- --",,No,,,2026-01-29,16:37:17,238109,"Vishvendra Singh _Bhilwara",B35,"Territory Manager",238099,"Vacant TL",,,"Day Ended","Day Ended",,,27.3135117,77.37547,,NA,"30 Jan 2026 05:15:52 AM"
"End Day",3112678,Customer,0,"-- --","-- --","-- --","-- --",,No,,,2026-01-29,12:27:02,280921,"RAHUL GADHAWAL",3934887,"Sales Rep",238170,"Kuldeep Godara  _Hissar",,,"Day Ended","Day Ended",,,28.9067005,75.6033322,,NA,"30 Jan 2026 05:15:52 AM"
"End Day",3112668,Customer,0,"-- --","-- --","-- --","-- --",,No,,,2026-01-29,18:18:20,239454,"Samdhan devkatte _Osmanabad",H4,"Territory Manager",239426,"Vijay Babar_TL Sangli",,,"Day Ended","Day Ended",,,16.0352746,73.4847483,,NA,"30 Jan 2026 05:15:52 AM"
"End Day",3112653,Customer,0,"-- --","-- --","-- --","-- --",,No,,,2026-01-29,17:42:00,238170,"Kuldeep Godara  _Hissar",A71,"Territory Manager",238159,Mohit_TL,,,"Day Ended","Day Ended",,,29.2875621,75.4687177,,NA,"30 Jan 2026 05:15:52 AM"
"End Day",3112642,Customer,0,"-- --","-- --","-- --","-- --",,No,,,2026-01-29,18:09:15,240509,"Bareddy Venkateswarlu _Guntur",C33,"Territory Manager",240508,"Murali G _guntur",,,"Day Ended","Day Ended",,,16.2695004,80.4210101,,NA,"30 Jan 2026 05:15:52 AM"
"End Day",3112637,Customer,0,"-- --","-- --","-- --","-- --",,No,,,2026-01-29,10:43:56,239175,"Shivkumar shete_Nanded",H12,"Territory Manager",238961,"Akshay Yeware _Vidarbha",,,"Day Ended","Day Ended",,,19.1723507,77.3224325,,NA,"30 Jan 2026 05:15:52 AM"
"End Day",3112628,Customer,0,"-- --","-- --","-- --","-- --",,No,,,2026-01-29,10:43:27,252938,"Moolagiri vishnu",3526504,"Sales Rep",240521,"M Chandrasekhar_Madanapalle",,,"Day Ended","Day Ended",,,13.5527016,78.5043629,,NA,"30 Jan 2026 05:15:52 AM"
"End Day",3112608,Customer,0,"-- --","-- --","-- --","-- --",,No,,,2026-01-29,15:15:21,232916,"Gaurav Santosh Kond",3086142,"Sales Rep",231726,"Yogesh Bharti_Satana",,,"Day Ended","Day Ended",,,20.4774117,73.9237983,,NA,"30 Jan 2026 05:15:52 AM"
"End Day",3112594,Customer,0,"-- --","-- --","-- --","-- --",,No,,,2026-01-29,19:21:28,241116,"Mithun Roy_Kharupetia",D10,"Territory Manager",241115,"SANDIP CHOWDHURY_Guwahati",,,"Day Ended","Day Ended",,,26.353515,92.68795,,NA,"30 Jan 2026 05:15:52 AM"
"End Day",3112463,Customer,0,"-- --","-- --","-- --","-- --",,No,,,2026-01-29,12:23:01,237113,"Rakshith H S",3172163,"Sales Rep",231721,"Mahesh R_KOLAR",,,"Day Ended","Day Ended",,,13.3319488,78.2993672,,NA,"30 Jan 2026 05:15:51 AM"
"End Day",3112385,Customer,0,"-- --","-- --","-- --","-- --",,No,,,2026-01-29,18:56:28,238105,"Madhuri Gupta _Jhalawar",B56,"Territory Manager",238099,"Vacant TL",,,"Day Ended","Day Ended",,,24.5930084,76.1714413,,NA,"30 Jan 2026 05:15:50 AM"
"End Day",3112369,Customer,0,"-- --","-- --","-- --","-- --",,No,,,2026-01-29,18:09:36,242427,"Kapil Barche",3065164,"Sales Rep",242402,"AMIT TIWARI_DHAR",,,"Day Ended","Day Ended",,,22.1538513,75.347953,,NA,"30 Jan 2026 05:15:50 AM"
"End Day",3112359,Customer,0,"-- --","-- --","-- --","-- --",,No,,,2026-01-29,17:10:19,240663,"Rohan Tate_Adilabad",C10,"Territory Manager",240661,"GANESH MALLEPULA _KARIMNAGAR",,,"Day Ended","Day Ended",,,19.6332667,78.50481,,NA,"30 Jan 2026 05:15:50 AM"
"End Day",3112304,Customer,0,"-- --","-- --","-- --","-- --",,No,,,2026-01-29,12:55:02,239800,"MUTHUMANI K-TRICHY",8105438,"Sales Manager",270521,"Vacant AMM_SWR1 (TN, KL)",,,"Day Ended","Day Ended",,,10.7970398000,76.6415111000,,NA,"30 Jan 2026 05:15:49 AM"
"End Day",3112294,Customer,0,"-- --","-- --","-- --","-- --",,No,,,2026-01-29,14:19:23,239261,"Manoj Singh_vadodara",B20,"Territory Manager",239425,"Nhanu Jadhav_ahmedabad",,,"Day Ended","Day Ended",,,21.723045,72.9932933,,NA,"30 Jan 2026 05:15:49 AM"
"End Day",3112257,Customer,0,"-- --","-- --","-- --","-- --",,No,,,2026-01-29,18:48:20,231716,"HariHara MurthyN-BANGALOR",G108454,"Sales Manager",250341,vacant_amm,,,"Day Ended","Day Ended",,,13.2862589,77.8049098,,NA,"30 Jan 2026 05:15:49 AM"
"End Day",3112243,Customer,0,"-- --","-- --","-- --","-- --",,No,,,2026-01-29,10:29:44,245793,"Babu Lal Mali_khandar",3370111,"Sales Rep",238104,"shashikant maury_Jaipur",,,"Day Ended","Day Ended",,,26.0413321,76.6095876,,NA,"30 Jan 2026 05:15:49 AM"
"End Day",3112216,Customer,0,"-- --","-- --","-- --","-- --",,No,,,2026-01-29,12:47:43,242486,"CHINMAYA KUMAR PATTANAYAK",2570507,"Sales Rep",268133,"PARAMITA PRIYADARSHANI_Jeypore",,,"Day Ended","Day Ended",,,19.6646439,82.2084977,,NA,"30 Jan 2026 05:15:48 AM"
"End Day",3112104,Customer,0,"-- --","-- --","-- --","-- --",,No,,,2026-01-29,15:20:03,247488,"Amol Borse_Satana",3365391,"Sales Rep",231726,"Yogesh Bharti_Satana",,,"Day Ended","Day Ended",,,20.4774289,73.9238038,,NA,"30 Jan 2026 05:15:48 AM"
"End Day",3112079,Customer,0,"-- --","-- --","-- --","-- --",,No,,,2026-01-29,19:25:50,238995,"Amol Kherde_Amravati",,"Sales Manager",238961,"Akshay Yeware _Vidarbha",,,"Day Ended","Day Ended",,,21.4690259,78.2701101,,NA,"30 Jan 2026 05:15:48 AM"
"End Day",3112045,Customer,0,"-- --","-- --","-- --","-- --",,No,,,2026-01-29,19:35:18,262618,"Tarun Sharma",3730037,"Sales Rep",238111,"Davinder Singh_Sri Ganganagar",,,"Day Ended","Day Ended",,,29.3859168,73.6610966,,NA,"30 Jan 2026 05:15:47 AM"
"End Day",3111989,Customer,0,"-- --","-- --","-- --","-- --",,No,,,2026-01-29,19:51:43,240518,Bhanuprakash_Adoni,C08,"Territory Manager",240516,"Levidi Manikya Reddy_Kurnool",,,"Day Ended","Day Ended",,,15.1620313000,77.3796058000,,NA,"30 Jan 2026 05:15:47 AM"
"End Day",3111966,Customer,0,"-- --","-- --","-- --","-- --",,No,,,2026-01-29,10:17:37,241166,"Arun Kumar Ningombam",2617763,"Sales Rep",241119,"Vacant Manipur_Imphal",,,"Day Ended","Day Ended",,,24.7801227,93.935894,,NA,"30 Jan 2026 05:15:47 AM"
"End Day",3111965,Customer,0,"-- --","-- --","-- --","-- --",,No,,,2026-01-29,14:46:22,242403,"Chetan Singh_BHOPAL",D64,"Territory Manager",242325,"Gaurav Kandpal_BHOPAL",,,"Day Ended","Day Ended",,,,,,NA,"30 Jan 2026 05:15:47 AM"
"End Day",3111959,Customer,0,"-- --","-- --","-- --","-- --",,No,,,2026-01-29,11:50:16,246865,"Rajesh Patidar_Jaora",3401077,"Sales Rep",242399,"VISHAL R_RATLAM",,,"Day Ended","Day Ended",,,23.0374492,75.9510737,,NA,"30 Jan 2026 05:15:47 AM"
"End Day",3111938,Customer,0,"-- --","-- --","-- --","-- --",,No,,,2026-01-29,13:21:33,240482,"PARISE VENKATA CHALAPATHI RAO_Vijayawada",,"Sales Manager",240507,"Vacant BL_Vijayawada",,,"Day Ended","Day Ended",,,16.116775,80.9326033,,NA,"30 Jan 2026 05:15:47 AM"
"End Day",3111899,Customer,0,"-- --","-- --","-- --","-- --",,No,,,2026-01-29,18:54:28,262898,"SACHIN C_HASSAN",C06,"Territory Manager",231716,"HariHara MurthyN-BANGALOR",,,"Day Ended","Day Ended",,,13.3157748,76.8970805,,NA,"30 Jan 2026 05:15:46 AM"
"End Day",3111897,Customer,0,"-- --","-- --","-- --","-- --",,No,,,2026-01-29,20:27:46,239609,"Salman Hussain _Lakhimpur",A58,"Territory Manager",238114,"Digvijay Singh-East UP",,,"Day Ended","Day Ended",,,28.06883,80.7463217,,NA,"30 Jan 2026 05:15:46 AM"
"End Day",3111882,Customer,0,"-- --","-- --","-- --","-- --",,No,,,2026-01-29,17:14:08,271617,"ASHUTOSH SARATHE	",3792197,"Sales Rep",242403,"Chetan Singh_BHOPAL",,,"Day Ended","Day Ended",,,22.704313,77.9344091,,NA,"30 Jan 2026 05:15:46 AM"
"End Day",3111851,Customer,0,"-- --","-- --","-- --","-- --",,No,,,2026-01-29,21:06:13,242428,"Sawan Panchole",3038702,"Sales Rep",242402,"AMIT TIWARI_DHAR",,,"Day Ended","Day Ended",,,21.943255,75.1389,,NA,"30 Jan 2026 05:15:46 AM"
"End Day",3111720,Customer,0,"-- --","-- --","-- --","-- --",,No,,,2026-01-29,16:18:14,260718,"Mohan Maragale",3695893,"Sales Rep",240322,"Sachin Tammaraya_BELGAUM",,,"Day Ended","Day Ended",,,,,,NA,"30 Jan 2026 05:15:45 AM"
"End Day",3111712,Customer,0,"-- --","-- --","-- --","-- --",,No,,,2026-01-29,23:52:16,271120,"Sudarshan Chauhan",3791932,"Sales Rep",238141,"kapil Tyagi_Amritsar",,,"Day Ended","Day Ended",,,31.8263565,75.1944089,,NA,"30 Jan 2026 05:15:45 AM"
"End Day",3111707,Customer,0,"-- --","-- --","-- --","-- --",,No,,,2026-01-29,10:08:42,240570,"Dubaku Suresh",2575757,"Sales Rep",240478,"Annasamudram Nandan kamesh _Mahabubabad",,,"Day Ended","Day Ended",,,17.3875086,79.8917471,,NA,"30 Jan 2026 05:15:45 AM"
"End Day",3111636,Customer,0,"-- --","-- --","-- --","-- --",,No,,,2026-01-29,10:06:27,271270,"KHILAN MEHULBHAI PATEL",3792170,"Sales Rep",239260,"Ajit Shipte_gandhinagar",,,"Day Ended","Day Ended",,,23.3620192,73.4669463,,NA,"30 Jan 2026 05:15:44 AM"
"End Day",3111606,Customer,0,"-- --","-- --","-- --","-- --",,No,,,2026-01-29,10:05:22,241131,"Shouvik Pramanik",2936105,"Sales Rep",245026,"Sabuj Maiti_Barasat",,,"Day Ended","Day Ended",,,22.8831147,88.7547121,,NA,"30 Jan 2026 05:15:44 AM"
"End Day",3111584,Customer,0,"-- --","-- --","-- --","-- --",,No,,,2026-01-29,21:42:43,281187,"Vivek Dhakad",3944878,"Sales Rep",242404,"Pankaj Singh Bisht_SHIVPURI",,,"Day Ended","Day Ended",,,24.5771694,77.3911582,,NA,"30 Jan 2026 05:15:44 AM"
"End Day",3111526,Customer,0,"-- --","-- --","-- --","-- --",,No,,,2026-01-29,11:50:46,268091,"Nikhil Pratap Singh ",3756911,"Sales Rep",239165,"Rahul Singh_Allahabad",,,"Day Ended","Day Ended",,,25.1447279,82.5685863,,NA,"30 Jan 2026 05:15:44 AM"
"End Day",3111482,Customer,0,"-- --","-- --","-- --","-- --",,No,,,2026-01-29,21:32:06,238159,Mohit_TL,,"Sales Manager",241604,"Sandeep Kasnia_AMM_HR & HP",,,"Day Ended","Day Ended",,,29.5439917,75.0656295,,NA,"30 Jan 2026 05:15:43 AM"
"End Day",3111465,Customer,0,"-- --","-- --","-- --","-- --",,No,,,2026-01-29,11:52:28,271943,"Jagdeesh Singh Rigwar",3802264,"Sales Rep",242414,"Vinay Kumar Singh_Bilaspur",,,"Day Ended","Day Ended",,,,,,NA,"30 Jan 2026 05:15:43 AM"
"End Day",3111459,Customer,0,"-- --","-- --","-- --","-- --",,No,,,2026-01-29,17:11:07,241094,"Rahul Kumar_Bihar Sharif",K2,"Territory Manager",241093,"Amit Kumar_Patna",,,"Day Ended","Day Ended",,,25.1942967,85.5133017,,NA,"30 Jan 2026 05:15:43 AM"
"End Day",3111445,Customer,0,"-- --","-- --","-- --","-- --",,No,,,2026-01-29,20:39:10,241099,"Sribash Kumar Mallick_krishnanagar",D05,"Territory Manager",241098,"Sumit Sarkar_South Bengal",,,"Day Ended","Day Ended",,,23.334407,88.6440347,,NA,"30 Jan 2026 05:15:43 AM"
"End Day",3111434,Customer,0,"-- --","-- --","-- --","-- --",,No,,,2026-01-29,10:00:31,276054,"Harish Shivshankar Charde",3733159,"Sales Rep",238996,"Vacant PO_Karanja-Arvi",,,"Day Ended","Day Ended",,,21.1864483,78.29157,,NA,"30 Jan 2026 05:15:43 AM"
"End Day",3111425,Customer,0,"-- --","-- --","-- --","-- --",,No,,,2026-01-29,15:22:08,271497,"ANIL KIRAD",3794730,"Sales Rep",238105,"Madhuri Gupta _Jhalawar",,,"Day Ended","Day Ended",,,24.4125064,76.5721698,,NA,"30 Jan 2026 05:15:43 AM"
"End Day",3111340,Customer,0,"-- --","-- --","-- --","-- --",,No,,,2026-01-29,09:58:19,245042,"Naresh Ramdas Farkade_Amthana",3316788,"Sales Rep",246702,"ajay jadhav_Aurangabad",,,"Day Ended","Day Ended",,,20.2202169,75.5880063,,NA,"30 Jan 2026 05:15:42 AM"
"End Day",3111333,Customer,0,"-- --","-- --","-- --","-- --",,No,,,2026-01-29,19:40:18,271314,Venkateshwarulu,3773433,"Sales Rep",245002,"M SUNEEL KUMAR_Gadwal",,,"Day Ended","Day Ended",,,15.9265183,77.7918817,,NA,"30 Jan 2026 05:15:42 AM"
"End Day",3111303,Customer,0,"-- --","-- --","-- --","-- --",,No,,,2026-01-29,11:45:29,259600,"Parthiban B",3681716,"Sales Rep",239763,"JAYAKUMAR C_VILLUPURAM",,,"Day Ended","Day Ended",,,11.5003367,79.76967,,NA,"30 Jan 2026 05:15:42 AM"
"End Day",3111302,Customer,0,"-- --","-- --","-- --","-- --",,No,,,2026-01-29,22:17:52,241112,"Sanjib dutta_JORHAT",B43,"Territory Manager",241109,"Mohit Kumar Saha_Corporate Tea",,,"Day Ended","Day Ended",,,26.2768183000,93.8999867000,,NA,"30 Jan 2026 05:15:42 AM"
"End Day",3111283,Customer,0,"-- --","-- --","-- --","-- --",,No,,,2026-01-29,13:52:32,262654,"Akash baghel",3733233,"Sales Rep",242402,"AMIT TIWARI_DHAR",,,"Day Ended","Day Ended",,,22.1303083,75.0683467,,NA,"30 Jan 2026 05:15:42 AM"
"End Day",3111266,Customer,0,"-- --","-- --","-- --","-- --",,No,,,2026-01-29,17:51:00,240476,"U chandrasekhar_warangal",,"Sales Manager",240475,"vacant_TN BL ",,,"Day Ended","Day Ended",,,17.9956818,79.5493429,,NA,"30 Jan 2026 05:15:42 AM"
"End Day",3111260,Customer,0,"-- --","-- --","-- --","-- --",,No,,,2026-01-29,17:32:45,274164,"HARDEEP SINGH",3821309,"Sales Rep",238149,"Vinod Kumar Chaubey_PATIALA",,,"Day Ended","Day Ended",,,,,,NA,"30 Jan 2026 05:15:42 AM"
"End Day",3111240,Customer,0,"-- --","-- --","-- --","-- --",,No,,,2026-01-29,14:55:26,242397,"RAJKUMAR MEENA_UJJAIN",D60,"Territory Manager",242323,"SHAILENDRA SOLANKHI_INDORE",,,"Day Ended","Day Ended",,,23.4888123000,75.6587445000,,NA,"30 Jan 2026 05:15:42 AM"
"End Day",3111204,Customer,0,"-- --","-- --","-- --","-- --",,No,,,2026-01-29,17:05:25,238122,"Ankit Singh _MORADABAD",A65,"Territory Manager",238113,"vacant-TL-Western UP",,,"Day Ended","Day Ended",,,28.8432471,78.7554486,,NA,"30 Jan 2026 05:15:41 AM"
"End Day",3111159,Customer,0,"-- --","-- --","-- --","-- --",,No,,,2026-01-29,18:21:49,238120,"shubham Gupta_KICHHA",A15,"Territory Manager",238113,"vacant-TL-Western UP",,,"Day Ended","Day Ended",,,28.9824999,79.3521445,,NA,"30 Jan 2026 05:15:41 AM"
"End Day",3111046,Customer,0,"-- --","-- --","-- --","-- --",,No,,,2026-01-29,18:57:29,275362,"Baliram Pandari Lambe",3699330,"Sales Rep",239195,"Vikas nagre _BULDHANA",,,"Day Ended","Day Ended",,,20.2649885,76.4409345,,NA,"30 Jan 2026 05:15:40 AM"
"End Day",3111011,Customer,0,"-- --","-- --","-- --","-- --",,No,,,2026-01-29,11:54:37,253104,"Tejas Ramesh Birajdar",3546804,"Sales Rep",239454,"Samdhan devkatte _Osmanabad",,,"Day Ended","Day Ended",,,17.3764033,76.2112,,NA,"30 Jan 2026 05:15:40 AM"
"End Day",3110982,Customer,0,"-- --","-- --","-- --","-- --",,No,,,2026-01-29,09:47:46,263873,"ANKATHWAR RUTHIK",,"Sales Rep",240663,"Rohan Tate_Adilabad",,,"Day Ended","Day Ended",,,19.6837255,78.5371016,,NA,"30 Jan 2026 05:15:40 AM"
"End Day",3110959,Customer,0,"-- --","-- --","-- --","-- --",,No,,,2026-01-29,22:52:24,261460,"Rahul Kamalsing Balode",3709407,"Sales Rep",239196,"Mahadeo Ramdas Nayse_Akola",,,"Day Ended","Day Ended",,,20.6931953,76.9992872,,NA,"30 Jan 2026 05:15:40 AM"
"End Day",3110912,Customer,0,"-- --","-- --","-- --","-- --",,No,,,2026-01-29,17:59:52,239801,"Sonymon K V _Thrissur",A42,"Territory Manager",239800,"MUTHUMANI K-TRICHY",,,"Day Ended","Day Ended",,,9.49514,76.34161,,NA,"30 Jan 2026 05:15:40 AM"
"End Day",3110811,Customer,0,"-- --","-- --","-- --","-- --",,No,,,2026-01-29,19:47:56,239250,"Bhushan Gaikwad_Ahmednagar",A00,"Territory Manager",239230,"Vacant TL_Pune",,,"Day Ended","Day Ended",,,,,,NA,"30 Jan 2026 05:15:39 AM"
"End Day",3110692,Customer,0,"-- --","-- --","-- --","-- --",,No,,,2026-01-29,09:40:14,239008,"Sujit Pangate_Paratwada",,"Sales Manager",239170,"Nilesh kankewar_Marathwada",,,"Day Ended","Day Ended",,,,,,NA,"30 Jan 2026 05:15:38 AM"
"End Day",3110687,Customer,0,"-- --","-- --","-- --","-- --",,No,,,2026-01-29,14:55:53,243872,"Basymon M G",3308123,"Sales Rep",239812,"Vinu Kumar S _Pallakad",,,"Day Ended","Day Ended",,,11.67321,76.0779483,,NA,"30 Jan 2026 05:15:38 AM"
"End Day",3110676,Customer,0,"-- --","-- --","-- --","-- --",,No,,,2026-01-29,22:00:25,232909,"Sachin Fakirrao Labhade _Nashik",A26,"Territory Manager",231718,D.DHOMSE_Nashik,,,"Day Ended","Day Ended",,,20.0327809,73.8656956,,NA,"30 Jan 2026 05:15:38 AM"
"End Day",3110614,Customer,0,"-- --","-- --","-- --","-- --",,No,,,2026-01-29,09:36:05,255959,"RAJKUMAR PAUL",3625444,"Sales Rep",241198,"MD HAFIJUR RAHAMAN_MALDA",,,"Day Ended","Day Ended",,,25.2056553,88.1968655,,NA,"30 Jan 2026 05:15:38 AM"
"End Day",3110611,Customer,0,"-- --","-- --","-- --","-- --",,No,,,2026-01-29,09:35:56,238155,"Peerzada Mussadiq_JAMMU & KASHMIR",A06,"Territory Manager",238153,"Vacant(HP J&K)",,,"Day Ended","Day Ended",,,34.3182194,74.3639478,,NA,"30 Jan 2026 05:15:38 AM"
"End Day",3110595,Customer,0,"-- --","-- --","-- --","-- --",,No,,,2026-01-29,09:35:33,231735,"Akshay Prakash Dhomse",2617762,"Sales Rep",231725,"Dhananjay Ushir_PIMPALGAON BASVANT",,,"Day Ended","Day Ended",,,,,,NA,"30 Jan 2026 05:15:37 AM"
"End Day",3110554,Customer,0,"-- --","-- --","-- --","-- --",,No,,,2026-01-29,15:57:34,238236,"SHYAM LAL KUMAWAT",2621386,"Sales Rep",238102,"Manohar Bhargav _Ajmer",,,"Day Ended","Day Ended",,,26.2750349,74.2648043,,NA,"30 Jan 2026 05:15:37 AM"
"End Day",3110494,Customer,0,"-- --","-- --","-- --","-- --",,No,,,2026-01-29,09:32:00,242413,Deepak_BEMETRA,H8,"Territory Manager",271703,"Dharmendra Malviya",,,"Day Ended","Day Ended",,,21.7113297,81.5379457,,NA,"30 Jan 2026 05:15:37 AM"
"End Day",3110490,Customer,0,"-- --","-- --","-- --","-- --",,No,,,2026-01-29,09:31:53,250517,"Akash Pandurang Kaldate",3437569,"Sales Rep",239455,"Sachin Shinde_Latur",,,"Day Ended","Day Ended",,,18.4948699,76.5241083,,NA,"30 Jan 2026 05:15:37 AM"
"End Day",3110481,Customer,0,"-- --","-- --","-- --","-- --",,No,,,2026-01-29,14:04:21,238147,"Shelendra kumar_MUKTSAR",A88,"Territory Manager",239596,"Vacant TL_Punjab",,,"Day Ended","Day Ended",,,30.2279601,74.6733986,,NA,"30 Jan 2026 05:15:37 AM"
"End Day",3110450,Customer,0,"-- --","-- --","-- --","-- --",,No,,,2026-01-29,09:30:46,240189,"Bhuvaneswaran R",3253085,"Sales Rep",239805,"MUTHU IRULAPPAN_Dindigul",,,"Day Ended","Day Ended",,,10.2640959,77.5394197,,NA,"30 Jan 2026 05:15:37 AM"
"End Day",3110448,Customer,0,"-- --","-- --","-- --","-- --",,No,,,2026-01-29,10:29:42,240573,"KORE RAMU",2574943,"Sales Rep",240479,"TALARI SUBHADRA_Warangal",,,"Day Ended","Day Ended",,,17.9813857,79.8790236,,NA,"30 Jan 2026 05:15:37 AM"
"End Day",3110430,Customer,0,"-- --","-- --","-- --","-- --",,No,,,2026-01-29,20:06:08,243873,"Aneesh P M",3308122,"Sales Rep",239812,"Vinu Kumar S _Pallakad",,,"Day Ended","Day Ended",,,11.6599241,76.1655018,,NA,"30 Jan 2026 05:15:36 AM"
"End Day",3110424,Customer,0,"-- --","-- --","-- --","-- --",,No,,,2026-01-29,18:33:25,240322,"Sachin Tammaraya_BELGAUM",A52,"Territory Manager",240319,"Vishwaradhya Biradar-HUBLI",,,"Day Ended","Day Ended",,,16.7253351,75.0734515,,NA,"30 Jan 2026 05:15:36 AM"
"End Day",3110417,Customer,0,"-- --","-- --","-- --","-- --",,No,,,2026-01-29,09:29:48,277444,"Abhishek Kumar",3872401,"Sales Rep",238139,"Sachin Kumar_MOGA",,,"Day Ended","Day Ended",,,30.8047918,75.4703574,,NA,"30 Jan 2026 05:15:36 AM"
"End Day",3110376,Customer,0,"-- --","-- --","-- --","-- --",,No,,,2026-01-29,16:43:58,259961,"Md. Phool Babu",3674861,"Sales Rep",241096,"Vacant D16_Samastipur",,,"Day Ended","Day Ended",,,25.8446597,85.6464663,,NA,"30 Jan 2026 05:15:36 AM"
"End Day",3110346,Customer,0,"-- --","-- --","-- --","-- --",,No,,,2026-01-29,09:27:22,269492,"NIVRUTTI BHIKULAL BODKE",3768615,"Sales Rep",232909,"Sachin Fakirrao Labhade _Nashik",,,"Day Ended","Day Ended",,,19.9100672,73.959713,,NA,"30 Jan 2026 05:15:36 AM"
"End Day",3110331,Customer,0,"-- --","-- --","-- --","-- --",,No,,,2026-01-29,21:37:36,237867,"vinayaka shidenur_davengere",C05,"Territory Manager",263313,"SURESH BIRADAR_Davengere",,,"Day Ended","Day Ended",,,,,,NA,"30 Jan 2026 05:15:36 AM"
"End Day",3110291,Customer,0,"-- --","-- --","-- --","-- --",,No,,,2026-01-29,09:25:41,239184,"NIKHIL YALCHAWAR",2617775,"Sales Rep",239175,"Shivkumar shete_Nanded",,,"Day Ended","Day Ended",,,19.7970783,78.2789533,,NA,"30 Jan 2026 05:15:35 AM"
"End Day",3110270,Customer,0,"-- --","-- --","-- --","-- --",,No,,,2026-01-29,22:19:21,243065,"Rama Avdhut Wanare",3321821,"Sales Rep",239195,"Vikas nagre _BULDHANA",,,"Day Ended","Day Ended",,,20.8115639,76.2066857,,NA,"30 Jan 2026 05:15:35 AM"
"End Day",3110244,Customer,0,"-- --","-- --","-- --","-- --",,No,,,2026-01-29,20:43:10,231720,"Amit reddy_CHIKKABALLAPURA",A46,"Territory Manager",231716,"HariHara MurthyN-BANGALOR",,,"Day Ended","Day Ended",,,13.426991,77.7301791,,NA,"30 Jan 2026 05:15:35 AM"
"End Day",3110219,Customer,0,"-- --","-- --","-- --","-- --",,No,,,2026-01-29,18:34:55,263845,"Ananta Mankar_dhule",C88,"Territory Manager",263562,"Purushottam Ghatode_Marathwada",,,"Day Ended","Day Ended",,,,,,NA,"30 Jan 2026 05:15:35 AM"
"End Day",3110218,Customer,0,"-- --","-- --","-- --","-- --",,No,,,2026-01-29,11:40:59,235974,"Amol Dikhale ",3165724,"Sales Rep",232909,"Sachin Fakirrao Labhade _Nashik",,,"Day Ended","Day Ended",,,,,,NA,"30 Jan 2026 05:15:35 AM"
"End Day",3110217,Customer,0,"-- --","-- --","-- --","-- --",,No,,,2026-01-29,13:21:10,239458,"Pruthviraj Chandrakant Mane",2617835,"Sales Rep",239442,"Mangesh Bhosale_Pandharpur",,,"Day Ended","Day Ended",,,17.6838992,75.325309,,NA,"30 Jan 2026 05:15:35 AM"
"End Day",3110197,Customer,0,"-- --","-- --","-- --","-- --",,No,,,2026-01-29,16:18:09,270393,"Vemunoori Sravan",3782413,"Sales Rep",240479,"TALARI SUBHADRA_Warangal",,,"Day Ended","Day Ended",,,,,,NA,"30 Jan 2026 05:15:35 AM"
"End Day",3110190,Customer,0,"-- --","-- --","-- --","-- --",,No,,,2026-01-29,09:21:54,271317,"TEJPAL SANDIIP KHATKE",3788082,"Sales Rep",239231,"Yogesh Kadam_Narayangaon",,,"Day Ended","Day Ended",,,18.0281833,74.5737163,,NA,"30 Jan 2026 05:15:35 AM"
"End Day",3110181,Customer,0,"-- --","-- --","-- --","-- --",,No,,,2026-01-29,21:36:47,270266,"Vivek M",3785350,"Sales Rep",239791,Vetrivel.G_ERODE,,,"Day Ended","Day Ended",,,11.3934484,76.7176098,,NA,"30 Jan 2026 05:15:35 AM"
"End Day",3110174,Customer,0,"-- --","-- --","-- --","-- --",,No,,,2026-01-29,15:54:24,276651,Dharmender,3792929,"Sales Rep",238174,"Vishnu tiwari _Rohtak",,,"Day Ended","Day Ended",,,28.2524714,76.3806838,,NA,"30 Jan 2026 05:15:35 AM"
"End Day",3110164,Customer,0,"-- --","-- --","-- --","-- --",,No,,,2026-01-29,20:58:31,244202,"Pratik Anil Bhurande",3284340,"Sales Rep",242911,"Akshay Ingole_Chandrapur",,,"Day Ended","Day Ended",,,19.7877453,79.3655102,,NA,"30 Jan 2026 05:15:35 AM"
"End Day",3110108,Customer,0,"-- --","-- --","-- --","-- --",,No,,,2026-01-29,09:19:02,231738,"Nikhil Ragunath Niphade",2617801,"Sales Rep",231725,"Dhananjay Ushir_PIMPALGAON BASVANT",,,"Day Ended","Day Ended",,,20.2135707,74.0505987,,NA,"30 Jan 2026 05:15:34 AM"
"End Day",3110065,Customer,0,"-- --","-- --","-- --","-- --",,No,,,2026-01-29,09:17:26,268359,"ISAHAK ALI",3767541,"Sales Rep",241198,"MD HAFIJUR RAHAMAN_MALDA",,,"Day Ended","Day Ended",,,25.6324597,88.134182,,NA,"30 Jan 2026 05:15:34 AM"
"End Day",3110059,Customer,0,"-- --","-- --","-- --","-- --",,No,,,2026-01-29,17:48:30,231726,"Yogesh Bharti_Satana",C58,"Territory Manager",231718,D.DHOMSE_Nashik,,,"Day Ended","Day Ended",,,20.5525194,74.4974864,,NA,"30 Jan 2026 05:15:34 AM"
"End Day",3110003,Customer,0,"-- --","-- --","-- --","-- --",,No,,,2026-01-29,22:15:03,276060,"Swapnil Mahesh Jangam",2617797,"Sales Rep",242911,"Akshay Ingole_Chandrapur",,,"Day Ended","Day Ended",,,19.4268063,80.0628765,,NA,"30 Jan 2026 05:15:33 AM"
"End Day",3109998,Customer,0,"-- --","-- --","-- --","-- --",,No,,,2026-01-29,09:15:23,244484,"Bhoala Jat",3333688,"Sales Rep",242404,"Pankaj Singh Bisht_SHIVPURI",,,"Day Ended","Day Ended",,,24.5789669,77.7383331,,NA,"30 Jan 2026 05:15:33 AM"
"End Day",3109997,Customer,0,"-- --","-- --","-- --","-- --",,No,,,2026-01-29,09:15:02,278095,"Onkar Sanjay Varpe",3885602,"Sales Rep",239249,prashant_Sangamner,,,"Day Ended","Day Ended",,,,,,NA,"30 Jan 2026 05:15:33 AM"
"End Day",3109991,Customer,0,"-- --","-- --","-- --","-- --",,No,,,2026-01-29,18:35:33,276074,"Akash Prakash Thakare",3752197,"Sales Rep",238969,"Vacant Po _Mukutban",,,"Day Ended","Day Ended",,,20.1998843,78.3380995,,NA,"30 Jan 2026 05:15:33 AM"
"End Day",3109984,Customer,0,"-- --","-- --","-- --","-- --",,No,,,2026-01-29,12:56:52,240320,"Laxman Salagar_bijapur",A45,"Territory Manager",240319,"Vishwaradhya Biradar-HUBLI",,,"Day Ended","Day Ended",,,16.4762417,75.6923817,,NA,"30 Jan 2026 05:15:33 AM"
"End Day",3109980,Customer,0,"-- --","-- --","-- --","-- --",,No,,,2026-01-29,09:14:19,241132,"Abhijit Podder",2996334,"Sales Rep",241099,"Sribash Kumar Mallick_krishnanagar",,,"Day Ended","Day Ended",,,23.2771533,88.7091762,,NA,"30 Jan 2026 05:15:33 AM"
"End Day",3109973,Customer,0,"-- --","-- --","-- --","-- --",,No,,,2026-01-29,17:57:40,271508,"TANMAY MAL",3783364,"Sales Rep",241103,"Pritam Dey_Hooghly",,,"Day Ended","Day Ended",,,22.9492692,87.5259748,,NA,"30 Jan 2026 05:15:33 AM"
"End Day",3109972,Customer,0,"-- --","-- --","-- --","-- --",,No,,,2026-01-29,20:07:19,281528,"Ankit kumar Patel",,"Sales Rep",242412,"kamal hassan_DHAMTARI",,,"Day Ended","Day Ended",,,,,,NA,"30 Jan 2026 05:15:33 AM"
"End Day",3109965,Customer,0,"-- --","-- --","-- --","-- --",,No,,,2026-01-29,09:13:37,276761,"TAMILARASAN S",3864489,"Sales Rep",239763,"JAYAKUMAR C_VILLUPURAM",,,"Day Ended","Day Ended",,,,,,NA,"30 Jan 2026 05:15:33 AM"
"End Day",3109917,Customer,0,"-- --","-- --","-- --","-- --",,No,,,2026-01-29,19:23:18,238125,"Raghvendra Singh_KANPUR",G4,"Territory Manager",238114,"Digvijay Singh-East UP",,,"Day Ended","Day Ended",,,26.48241,80.220295,,NA,"30 Jan 2026 05:15:33 AM"
"End Day",3109913,Customer,0,"-- --","-- --","-- --","-- --",,No,,,2026-01-29,09:12:06,239450,"Indrajeet Jagadish Patil",2617897,"Sales Rep",239441,"Kiran Sansare_Satara",,,"Day Ended","Day Ended",,,17.2990096,74.1211227,,NA,"30 Jan 2026 05:15:33 AM"
"End Day",3109892,Customer,0,"-- --","-- --","-- --","-- --",,No,,,2026-01-29,19:16:10,238198,"Manoj Kumar",2619137,"Sales Rep",238122,"Ankit Singh _MORADABAD",,,"Day Ended","Day Ended",,,28.4159667,78.346155,,NA,"30 Jan 2026 05:15:33 AM"
"End Day",3109885,Customer,0,"-- --","-- --","-- --","-- --",,No,,,2026-01-29,22:27:04,242400,"Dinesh singh ginnare_KHARGONE",D90,"Territory Manager",242324,"Javed Khan Nimar_KHARGONE",,,"Day Ended","Day Ended",,,21.8314724,75.6344267,,NA,"30 Jan 2026 05:15:33 AM"
"End Day",3109884,Customer,0,"-- --","-- --","-- --","-- --",,No,,,2026-01-29,09:09:43,239280,"PANALIYA NIRMAL DASRATHBHAI_rajkot",2617876,"Sales Rep",239263,"mahek amreliya_Rajkot",,,"Day Ended","Day Ended",,,22.3347144,70.8821542,,NA,"30 Jan 2026 05:15:33 AM"
"End Day",3109882,Customer,0,"-- --","-- --","-- --","-- --",,No,,,2026-01-29,20:01:34,240323,"Basavaraj Biradar_GULBERGA",A34,"Territory Manager",240319,"Vishwaradhya Biradar-HUBLI",,,"Day Ended","Day Ended",,,17.3488091,76.8381872,,NA,"30 Jan 2026 05:15:33 AM"
"End Day",3109865,Customer,0,"-- --","-- --","-- --","-- --",,No,,,2026-01-29,09:44:30,263294,"Mahesh Singh Rajput",3740222,"Sales Rep",242397,"RAJKUMAR MEENA_UJJAIN",,,"Day Ended","Day Ended",,,23.6092946,76.8173247,,NA,"30 Jan 2026 05:15:32 AM"
"End Day",3109846,Customer,0,"-- --","-- --","-- --","-- --",,No,,,2026-01-29,09:07:50,241128,"Prasanta Bhakta",2617885,"Sales Rep",241099,"Sribash Kumar Mallick_krishnanagar",,,"Day Ended","Day Ended",,,23.6148643,88.3807376,,NA,"30 Jan 2026 05:15:32 AM"
"End Day",3109838,Customer,0,"-- --","-- --","-- --","-- --",,No,,,2026-01-29,17:36:05,279070,"MUBARAK BEE SILARSAHEBGARI",3890557,"Sales Rep",240487,"Lakshman Nallapati_TADEPALLIGUDEM",,,"Day Ended","Day Ended",,,16.7891442,81.5395203,,NA,"30 Jan 2026 05:15:32 AM"
"End Day",3109795,Customer,0,"-- --","-- --","-- --","-- --",,No,,,2026-01-29,22:02:06,240487,"Lakshman Nallapati_TADEPALLIGUDEM",A36,"Territory Manager",240482,"PARISE VENKATA CHALAPATHI RAO_Vijayawada",,,"Day Ended","Day Ended",,,15.9636223,80.7486588,,NA,"30 Jan 2026 05:15:32 AM"
"End Day",3109766,Customer,0,"-- --","-- --","-- --","-- --",,No,,,2026-01-29,19:34:49,239805,"MUTHU IRULAPPAN_Dindigul",B29,"Territory Manager",239800,"MUTHUMANI K-TRICHY",,,"Day Ended","Day Ended",,,,,,NA,"30 Jan 2026 05:15:32 AM"
"End Day",3109759,Customer,0,"-- --","-- --","-- --","-- --",,No,,,2026-01-29,16:36:31,239459,"Kerappa Sukhadev Metkari",2617843,"Sales Rep",239442,"Mangesh Bhosale_Pandharpur",,,"Day Ended","Day Ended",,,,,,NA,"30 Jan 2026 05:15:32 AM"
"End Day",3109752,Customer,0,"-- --","-- --","-- --","-- --",,No,,,2026-01-29,10:19:36,278023,"Bahgyashri Rangnath Ugale",3873526,"Sales Rep",231725,"Dhananjay Ushir_PIMPALGAON BASVANT",,,"Day Ended","Day Ended",,,20.1845654,73.7961262,,NA,"30 Jan 2026 05:15:32 AM"
"End Day",3109735,Customer,0,"-- --","-- --","-- --","-- --",,No,,,2026-01-29,14:39:26,238139,"Sachin Kumar_MOGA",A87,"Territory Manager",238136,"Sandeep Kumar_BHATINDA",,,"Day Ended","Day Ended",,,30.9317530000,75.4775497000,,NA,"30 Jan 2026 05:15:31 AM"
"End Day",3109711,Customer,0,"-- --","-- --","-- --","-- --",,No,,,2026-01-29,09:01:13,271200,"SUKUMAR SAR",3792798,"Sales Rep",241101,"Susovan Ghosh_West Medinipur",,,"Day Ended","Day Ended",,,22.8473656,87.3030644,,NA,"30 Jan 2026 05:15:31 AM"
"End Day",3109702,Customer,0,"-- --","-- --","-- --","-- --",,No,,,2026-01-29,13:10:43,268133,"PARAMITA PRIYADARSHANI_Jeypore",D79,"Territory Manager",242416,"BIDHU KALYANKAR_BHUBANESHWAR",,,"Day Ended","Day Ended",,,18.8853515,82.5335359,,NA,"30 Jan 2026 05:15:31 AM"
"End Day",3109697,Customer,0,"-- --","-- --","-- --","-- --",,No,,,2026-01-29,13:05:03,274527,"SHIJU S",3831729,"Sales Rep",239812,"Vinu Kumar S _Pallakad",,,"Day Ended","Day Ended",,,10.7970351,76.6415273,,NA,"30 Jan 2026 05:15:31 AM"
"End Day",3109669,Customer,0,"-- --","-- --","-- --","-- --",,No,,,2026-01-29,20:48:25,238293,"Jasvir Singh",2621376,"Sales Rep",238151,"Yatendera Rana_BARNALA",,,"Day Ended","Day Ended",,,30.5093917,75.3738633,,NA,"30 Jan 2026 05:15:31 AM"
"End Day",3109651,Customer,0,"-- --","-- --","-- --","-- --",,No,,,2026-01-29,08:58:33,273499,"Swarn Singh",3816647,"Sales Rep",238147,"Shelendra kumar_MUKTSAR",,,"Day Ended","Day Ended",,,30.4423007,74.3978834,,NA,"30 Jan 2026 05:15:31 AM"
"End Day",3109646,Customer,0,"-- --","-- --","-- --","-- --",,No,,,2026-01-29,19:48:04,269941,"Indrajeet Meena",3782753,"Sales Rep",242397,"RAJKUMAR MEENA_UJJAIN",,,"Day Ended","Day Ended",,,24.1974416,75.6438739,,NA,"30 Jan 2026 05:15:31 AM"
"End Day",3109644,Customer,0,"-- --","-- --","-- --","-- --",,No,,,2026-01-29,08:58:18,255215,"NITESH MADHUKAR DHOKANE",3602554,"Sales Rep",239013,"Rahul Dorle_Pusad",,,"Day Ended","Day Ended",,,19.9207238,77.629831,,NA,"30 Jan 2026 05:15:31 AM"
"End Day",3109601,Customer,0,"-- --","-- --","-- --","-- --",,No,,,2026-01-29,10:59:38,242435,"Lokesh Mahadule",2988018,"Sales Rep",242407,"Naveen Bopache_CHHINDWARA",,,"Day Ended","Day Ended",,,21.7766094,78.2575029,,NA,"30 Jan 2026 05:15:30 AM"
"End Day",3109571,Customer,0,"-- --","-- --","-- --","-- --",,No,,,2026-01-29,22:05:33,238104,"shashikant maury_Jaipur",A73,"Territory Manager",238098,"Vacant-TL-North Rajasthan",,,"Day Ended","Day Ended",,,27.0055149,75.7691395,,NA,"30 Jan 2026 05:15:30 AM"
"End Day",3109569,Customer,0,"-- --","-- --","-- --","-- --",,No,,,2026-01-29,13:55:01,276473,"SOMNATH SUBHASH JADHAV",3852973,"Sales Rep",239440,"MAHESH JADHAV_KAVTHEMAHNKAL",,,"Day Ended","Day Ended",,,17.03965,74.7850567,,NA,"30 Jan 2026 05:15:30 AM"
"End Day",3109547,Customer,0,"-- --","-- --","-- --","-- --",,No,,,2026-01-29,21:52:14,241152,"Sandip Kumar Mahata",3189958,"Sales Rep",241103,"Pritam Dey_Hooghly",,,"Day Ended","Day Ended",,,22.7415708,86.8548141,,NA,"30 Jan 2026 05:15:30 AM"
"End Day",3109536,Customer,0,"-- --","-- --","-- --","-- --",,No,,,2026-01-29,08:50:25,241110,"Rajib Dey_Dibrugarh",D29,"Territory Manager",241109,"Mohit Kumar Saha_Corporate Tea",,,"Day Ended","Day Ended",,,27.4703147,95.367562,,NA,"30 Jan 2026 05:15:30 AM"
"End Day",3109534,Customer,0,"-- --","-- --","-- --","-- --",,No,,,2026-01-29,13:41:39,241160,"Dipjyoti Nath",3156694,"Sales Rep",241116,"Mithun Roy_Kharupetia",,,"Day Ended","Day Ended",,,26.4183638,92.3423393,,NA,"30 Jan 2026 05:15:30 AM"
"End Day",3109518,Customer,0,"-- --","-- --","-- --","-- --",,No,,,2026-01-29,08:49:37,269567,DeepakAshokKale,3768650,"Sales Rep",231725,"Dhananjay Ushir_PIMPALGAON BASVANT",,,"Day Ended","Day Ended",,,20.2752451,73.9484062,,NA,"30 Jan 2026 05:15:30 AM"
"End Day",3109512,Customer,0,"-- --","-- --","-- --","-- --",,No,,,2026-01-29,08:49:15,259528,RameshwarSheshraoRathod,3653541,"Sales Rep",239231,"Yogesh Kadam_Narayangaon",,,"Day Ended","Day Ended",,,,,,NA,"30 Jan 2026 05:15:30 AM"
"End Day",3109501,Customer,0,"-- --","-- --","-- --","-- --",,No,,,2026-01-29,18:19:23,263752,"Ravindra kumar pal ",3744915,"Sales Rep",238121,"Jai Prakash mishra_Faizabad",,,"Day Ended","Day Ended",,,26.5441007,82.1972055,,NA,"30 Jan 2026 05:15:30 AM"
"End Day",3109491,Customer,0,"-- --","-- --","-- --","-- --",,No,,,2026-01-29,13:40:37,243585,M.Srikanth,3309024,"Sales Rep",239809,"BALACHANDAR B_DHARMAPURI",,,"Day Ended","Day Ended",,,12.5062968,77.7580605,,NA,"30 Jan 2026 05:15:30 AM"
"End Day",3109475,Customer,0,"-- --","-- --","-- --","-- --",,No,,,2026-01-29,08:45:50,276055,"Duyash Vilasrao Dudhe",2959938,"Sales Rep",238996,"Vacant PO_Karanja-Arvi",,,"Day Ended","Day Ended",,,20.8034163,78.1409886,,NA,"30 Jan 2026 05:15:30 AM"
"End Day",3109450,Customer,0,"-- --","-- --","-- --","-- --",,No,,,2026-01-29,08:44:35,241208,"REZAUL ISLAM",2617858,"Sales Rep",241198,"MD HAFIJUR RAHAMAN_MALDA",,,"Day Ended","Day Ended",,,25.3923318,88.4372944,,NA,"30 Jan 2026 05:15:29 AM"
"End Day",3109422,Customer,0,"-- --","-- --","-- --","-- --",,No,,,2026-01-29,19:58:01,263558,"Dasi Rajendra Prasad",3749913,"Sales Rep",240521,"M Chandrasekhar_Madanapalle",,,"Day Ended","Day Ended",,,13.7849567,78.59156,,NA,"30 Jan 2026 05:15:29 AM"
"End Day",3109417,Customer,0,"-- --","-- --","-- --","-- --",,No,,,2026-01-29,16:29:20,239448,"PRAMOD DHAYARKAR",3166167,"Sales Rep",239440,"MAHESH JADHAV_KAVTHEMAHNKAL",,,"Day Ended","Day Ended",,,16.8022755,74.8706668,,NA,"30 Jan 2026 05:15:29 AM"
"End Day",3109410,Customer,0,"-- --","-- --","-- --","-- --",,No,,,2026-01-29,08:42:32,274241,"KURUVA THIRUMALESH",3827433,"Sales Rep",240520,"C.MADANNA _YEMMIGANUR",,,"Day Ended","Day Ended",,,15.6803115,77.635541,,NA,"30 Jan 2026 05:15:29 AM"
"End Day",3109406,Customer,0,"-- --","-- --","-- --","-- --",,No,,,2026-01-29,16:11:43,278092,"Malakarisidda Pujari",3892746,"Sales Rep",240320,"Laxman Salagar_bijapur",,,"Day Ended","Day Ended",,,,,,NA,"30 Jan 2026 05:15:29 AM"
"End Day",3109387,Customer,0,"-- --","-- --","-- --","-- --",,No,,,2026-01-29,18:40:27,252987,"Pratiksha Ashok Kolhe",3484759,"Sales Rep",238962,"Kunal Gawande _Nagpur",,,"Day Ended","Day Ended",,,19.875646,75.327202,,NA,"30 Jan 2026 05:15:29 AM"
"End Day",3109383,Customer,0,"-- --","-- --","-- --","-- --",,No,,,2026-01-29,19:21:57,263341,"VENKATA CHALAPATHI_SHIVMOGGA",I7,"Territory Manager",263313,"SURESH BIRADAR_Davengere",,,"Day Ended","Day Ended",,,13.9206617,75.5729117,,NA,"30 Jan 2026 05:15:29 AM"
"End Day",3109376,Customer,0,"-- --","-- --","-- --","-- --",,No,,,2026-01-29,20:19:58,269562,"Kapil Sharma",3749233,"Sales Rep",238163,"Mukesh lohani_AMBALA",,,"Day Ended","Day Ended",,,29.8650735,76.9275479,,NA,"30 Jan 2026 05:15:29 AM"
"End Day",3109350,Customer,0,"-- --","-- --","-- --","-- --",,No,,,2026-01-29,19:59:21,239284,"Kalubhai Bhayabhai Kapdiya_CA_Mahuva",3274035,"Sales Rep",239264,"Deepak Chaturvedi_Bhavnagar",,,"Day Ended","Day Ended",,,21.2790919,71.9342528,,NA,"30 Jan 2026 05:15:28 AM"
"End Day",3109346,Customer,0,"-- --","-- --","-- --","-- --",,No,,,2026-01-29,12:37:55,254332,"Sager Puri",3561257,"Sales Rep",231726,"Yogesh Bharti_Satana",,,"Day Ended","Day Ended",,,20.7153193,74.2962507,,NA,"30 Jan 2026 05:15:28 AM"
"End Day",3109335,Customer,0,"-- --","-- --","-- --","-- --",,No,,,2026-01-29,16:31:37,263865,"DHARAJIYA ASHVIN BHAI SEGHA BHAI",3753510,"Sales Rep",239264,"Deepak Chaturvedi_Bhavnagar",,,"Day Ended","Day Ended",,,22.3548248,71.7146052,,NA,"30 Jan 2026 05:15:28 AM"
"End Day",3109329,Customer,0,"-- --","-- --","-- --","-- --",,No,,,2026-01-29,15:14:33,249968,"Omkar Sudhakar Gaikwad",3437430,"Sales Rep",239454,"Samdhan devkatte _Osmanabad",,,"Day Ended","Day Ended",,,18.2648711,75.922337,,NA,"30 Jan 2026 05:15:28 AM"
"End Day",3109328,Customer,0,"-- --","-- --","-- --","-- --",,No,,,2026-01-29,08:37:26,242414,"Vinay Kumar Singh_Bilaspur",D76,"Territory Manager",271703,"Dharmendra Malviya",,,"Day Ended","Day Ended",,,22.0951293,82.089497,,NA,"30 Jan 2026 05:15:28 AM"
"End Day",3109326,Customer,0,"-- --","-- --","-- --","-- --",,No,,,2026-01-29,20:13:17,273964,Hanumanth,3822409,"Sales Rep",240303,"Kattamuri S V N S S Bhaskar Mani Sekhar_Raichur",,,"Day Ended","Day Ended",,,16.1289134,77.3324156,,NA,"30 Jan 2026 05:15:28 AM"
"End Day",3109322,Customer,0,"-- --","-- --","-- --","-- --",,No,,,2026-01-29,08:37:20,246465,"SOUMEN DEY_RERIPUR",3389481,"Sales Rep",241101,"Susovan Ghosh_West Medinipur",,,"Day Ended","Day Ended",,,22.0325417,87.2148533,,NA,"30 Jan 2026 05:15:28 AM"
"End Day",3109292,Customer,0,"-- --","-- --","-- --","-- --",,No,,,2026-01-29,19:23:51,239455,"Sachin Shinde_Latur",C51,"Territory Manager",239426,"Vijay Babar_TL Sangli",,,"Day Ended","Day Ended",,,18.5157123000,76.5653367000,,NA,"30 Jan 2026 05:15:28 AM"
"End Day",3109286,Customer,0,"-- --","-- --","-- --","-- --",,No,,,2026-01-29,08:34:44,253691,"Ajay Singh",3561161,"Sales Rep",238116,"Shailendra Pratap Singh_BAREILLY",,,"Day Ended","Day Ended",,,27.5726987,78.4931267,,NA,"30 Jan 2026 05:15:28 AM"
"End Day",3109271,Customer,0,"-- --","-- --","-- --","-- --",,No,,,2026-01-29,19:45:58,252380,"Ram Kumar_Sri Vijaynagar",3476176,"Sales Rep",238111,"Davinder Singh_Sri Ganganagar",,,"Day Ended","Day Ended",,,29.3500816,73.5974631,,NA,"30 Jan 2026 05:15:28 AM"
"End Day",3109259,Customer,0,"-- --","-- --","-- --","-- --",,No,,,2026-01-29,13:48:18,281561,"Loganathan T",,"Sales Rep",239809,"BALACHANDAR B_DHARMAPURI",,,"Day Ended","Day Ended",,,12.2369117,78.2707233,,NA,"30 Jan 2026 05:15:28 AM"
"End Day",3109246,Customer,0,"-- --","-- --","-- --","-- --",,No,,,2026-01-29,13:53:54,263292,"Sudarshan Uddhav Bade",3743520,"Sales Rep",239250,"Bhushan Gaikwad_Ahmednagar",,,"Day Ended","Day Ended",,,19.1847469,75.0602265,,NA,"30 Jan 2026 05:15:27 AM"
"End Day",3109236,Customer,0,"-- --","-- --","-- --","-- --",,No,,,2026-01-29,08:31:40,246438,"AKIB DILAWAR MUJAWAR_ISLAMPUR",3334238,"Sales Rep",239443,"Satyajit Todkar_Kolhapur",,,"Day Ended","Day Ended",,,17.0530892,74.2547969,,NA,"30 Jan 2026 05:15:27 AM"
"End Day",3109230,Customer,0,"-- --","-- --","-- --","-- --",,No,,,2026-01-29,23:35:36,269082,"Bhubana Thapa",3762062,"Sales Rep",242409,"DEBADATTA SAMAL_BARGARH",,,"Day Ended","Day Ended",,,20.7296211,83.8143957,,NA,"30 Jan 2026 05:15:27 AM"
"End Day",3109226,Customer,0,"-- --","-- --","-- --","-- --",,No,,,2026-01-29,17:50:10,239803,"Sowenderrajan L _Tirunelveli",D7,"Territory Manager",239800,"MUTHUMANI K-TRICHY",,,"Day Ended","Day Ended",,,9.103054,77.585698,,NA,"30 Jan 2026 05:15:27 AM"
"End Day",3109219,Customer,0,"-- --","-- --","-- --","-- --",,No,,,2026-01-29,18:50:41,240188,S.SARAVANAKUMAR,3250692,"Sales Rep",239803,"Sowenderrajan L _Tirunelveli",,,"Day Ended","Day Ended",,,8.2766093,77.568702,,NA,"30 Jan 2026 05:15:27 AM"
"End Day",3109215,Customer,0,"-- --","-- --","-- --","-- --",,No,,,2026-01-29,17:41:26,276296,"SASIKUMAR G",3854200,"Sales Rep",239808,"Varshini Kumar_SALEM",,,"Day Ended","Day Ended",,,11.2567823,78.2769812,,NA,"30 Jan 2026 05:15:27 AM"
"End Day",3109201,Customer,0,"-- --","-- --","-- --","-- --",,No,,,2026-01-29,16:15:47,270569,"ISHWAR CHAND",3784179,"Sales Rep",239609,"Salman Hussain _Lakhimpur",,,"Day Ended","Day Ended",,,28.0644433,80.1574883,,NA,"30 Jan 2026 05:15:27 AM"
"End Day",3109168,Customer,0,"-- --","-- --","-- --","-- --",,No,,,2026-01-29,08:28:30,248669,"Manas Pramanik",3384149,"Sales Rep",241102,"Snehasish Chakraborty_East Medinipur",,,"Day Ended","Day Ended",,,21.9201516,87.3911162,,NA,"30 Jan 2026 05:15:27 AM"
"End Day",3109150,Customer,0,"-- --","-- --","-- --","-- --",,No,,,2026-01-29,15:03:15,241129,"Anup Biswas",2617883,"Sales Rep",241099,"Sribash Kumar Mallick_krishnanagar",,,"Day Ended","Day Ended",,,23.141055,88.6210494,,NA,"30 Jan 2026 05:15:27 AM"
"End Day",3109144,Customer,0,"-- --","-- --","-- --","-- --",,No,,,2026-01-29,08:40:26,246771,"Ramesh Gaikwad_chandori",3155107,"Sales Rep",231724,"Shubham Shinde_NIPHAD",,,"Day Ended","Day Ended",,,19.9881124,74.1178342,,NA,"30 Jan 2026 05:15:27 AM"
"End Day",3109117,Customer,0,"-- --","-- --","-- --","-- --",,No,,,2026-01-29,08:25:30,241147,"Sibu Jana",2617901,"Sales Rep",241102,"Snehasish Chakraborty_East Medinipur",,,"Day Ended","Day Ended",,,22.0494245,87.1975965,,NA,"30 Jan 2026 05:15:26 AM"
"End Day",3109113,Customer,0,"-- --","-- --","-- --","-- --",,No,,,2026-01-29,19:00:17,274172,"S Bhaskara",3813510,"Sales Rep",240517,"Pamidi Jabiullah_ananthpur",,,"Day Ended","Day Ended",,,14.1053294,78.1717992,,NA,"30 Jan 2026 05:15:26 AM"
"End Day",3109096,Customer,0,"-- --","-- --","-- --","-- --",,No,,,2026-01-29,18:08:44,241207,"BIMAN KUMAR SINGHA",3112652,"Sales Rep",241198,"MD HAFIJUR RAHAMAN_MALDA",,,"Day Ended","Day Ended",,,25.19933,87.927744,,NA,"30 Jan 2026 05:15:26 AM"
"End Day",3109073,Customer,0,"-- --","-- --","-- --","-- --",,No,,,2026-01-29,17:12:10,281985,"Sayananda sahu",,"Sales Rep",242409,"DEBADATTA SAMAL_BARGARH",,,"Day Ended","Day Ended",,,21.1863731,83.6000174,,NA,"30 Jan 2026 05:15:26 AM"
"End Day",3109062,Customer,0,"-- --","-- --","-- --","-- --",,No,,,2026-01-29,13:56:22,246826,"Asheesh Temre_Betul",3401182,"Sales Rep",242407,"Naveen Bopache_CHHINDWARA",,,"Day Ended","Day Ended",,,22.1815166,79.6933065,,NA,"30 Jan 2026 05:15:26 AM"
"End Day",3109057,Customer,0,"-- --","-- --","-- --","-- --",,No,,,2026-01-29,17:36:58,279299,SINEKA.K,,"Sales Rep",239803,"Sowenderrajan L _Tirunelveli",,,"Day Ended","Day Ended",,,8.9080219,77.3967267,,NA,"30 Jan 2026 05:15:26 AM"
"End Day",3109054,Customer,0,"-- --","-- --","-- --","-- --",,No,,,2026-01-29,08:21:32,238279,"GURJEET SINGH",2630863,"Sales Rep",238138,"ATUL KUMAR PANDEY_KHANNA",,,"Day Ended","Day Ended",,,30.8237781,76.2268516,,NA,"30 Jan 2026 05:15:26 AM"
"End Day",3109047,Customer,0,"-- --","-- --","-- --","-- --",,No,,,2026-01-29,22:16:02,262716,"Bommareddy Satyanarayana Reddy_nizamabad",C22,"Territory Manager",240661,"GANESH MALLEPULA _KARIMNAGAR",,,"Day Ended","Day Ended",,,18.6829002,77.8452549,,NA,"30 Jan 2026 05:15:26 AM"
"End Day",3109042,Customer,0,"-- --","-- --","-- --","-- --",,No,,,2026-01-29,15:33:02,238101,"naveen sanodiya_JODHPUR",B53,"Territory Manager",238098,"Vacant-TL-North Rajasthan",,,"Day Ended","Day Ended",,,26.349219,73.0457733,,NA,"30 Jan 2026 05:15:26 AM"
"End Day",3109034,Customer,0,"-- --","-- --","-- --","-- --",,No,,,2026-01-29,18:55:58,239804,"Senthil Kumar _Trichy",A41,"Territory Manager",239800,"MUTHUMANI K-TRICHY",,,"Day Ended","Day Ended",,,11.2322481,78.8869903,,NA,"30 Jan 2026 05:15:26 AM"
"End Day",3109020,Customer,0,"-- --","-- --","-- --","-- --",,No,,,2026-01-29,13:59:02,243645,"Pramod Kumar",3299070,"Sales Rep",239165,"Rahul Singh_Allahabad",,,"Day Ended","Day Ended",,,24.7195471,82.8482197,,NA,"30 Jan 2026 05:15:26 AM"
"End Day",3109013,Customer,0,"-- --","-- --","-- --","-- --",,No,,,2026-01-29,08:19:02,241142,"Krishnendu Samanta",2617910,"Sales Rep",241101,"Susovan Ghosh_West Medinipur",,,"Day Ended","Day Ended",,,22.3835609,87.8032033,,NA,"30 Jan 2026 05:15:26 AM"
"End Day",3109010,Customer,0,"-- --","-- --","-- --","-- --",,No,,,2026-01-29,08:18:31,242420,"ISHWAR SINGH",3084544,"Sales Rep",242399,"VISHAL R_RATLAM",,,"Day Ended","Day Ended",,,,,,NA,"30 Jan 2026 05:15:25 AM"
"End Day",3109000,Customer,0,"-- --","-- --","-- --","-- --",,No,,,2026-01-29,18:54:03,269491,"NIKHIL SANJAY JADHAV",3768646,"Sales Rep",232909,"Sachin Fakirrao Labhade _Nashik",,,"Day Ended","Day Ended",,,20.2531503,73.9301256,,NA,"30 Jan 2026 05:15:25 AM"
"End Day",3108995,Customer,0,"-- --","-- --","-- --","-- --",,No,,,2026-01-29,19:35:14,239808,"Varshini Kumar_SALEM",C36,"Territory Manager",239807,"JEEVA RAMALINGAM_SALEM",,,"Day Ended","Day Ended",,,11.6673723,78.1312259,,NA,"30 Jan 2026 05:15:25 AM"
"End Day",3108989,Customer,0,"-- --","-- --","-- --","-- --",,No,,,2026-01-29,22:20:37,267960,"KACHHAD HIREN RAGHAV BHAI	",3753396,"Sales Rep",239264,"Deepak Chaturvedi_Bhavnagar",,,"Day Ended","Day Ended",,,21.7289177,72.1546812,,NA,"30 Jan 2026 05:15:25 AM"
"End Day",3108980,Customer,0,"-- --","-- --","-- --","-- --",,No,,,2026-01-29,08:15:43,240526,Ramesh,2632836,"Sales Rep",240509,"Bareddy Venkateswarlu _Guntur",,,"Day Ended","Day Ended",,,16.2870974,80.4362804,,NA,"30 Jan 2026 05:15:25 AM"
"End Day",3108968,Customer,0,"-- --","-- --","-- --","-- --",,No,,,2026-01-29,17:20:48,241212,"ANANTA SINGHA",2617786,"Sales Rep",241199,"GAUTAM  CHAUDHURI_ISLAMPUR",,,"Day Ended","Day Ended",,,26.3540462,88.2958589,,NA,"30 Jan 2026 05:15:25 AM"
"End Day",3108966,Customer,0,"-- --","-- --","-- --","-- --",,No,,,2026-01-29,08:14:58,249419,"Sushant Shantaram Hingane",3324690,"Sales Rep",239231,"Yogesh Kadam_Narayangaon",,,"Day Ended","Day Ended",,,19.2893739,73.9913895,,NA,"30 Jan 2026 05:15:25 AM"
"End Day",3108965,Customer,0,"-- --","-- --","-- --","-- --",,No,,,2026-01-29,08:41:35,246866,"POKURI THIRUPATHI RAO_KARAMPUDI",3415556,"Sales Rep",240512,"Atla Siva Krishnareddy_Macherla",,,"Day Ended","Day Ended",,,16.4745176,79.6454737,,NA,"30 Jan 2026 05:15:25 AM"
"End Day",3108956,Customer,0,"-- --","-- --","-- --","-- --",,No,,,2026-01-29,19:01:52,246798,"Rahul pandya_Goutampura",3379326,"Sales Rep",242396,"CHANDRAPAL SHEKHAWAT_INDORE",,,"Day Ended","Day Ended",,,22.9855079,75.5244862,,NA,"30 Jan 2026 05:15:25 AM"
"End Day",3108946,Customer,0,"-- --","-- --","-- --","-- --",,No,,,2026-01-29,17:51:33,262787,"Abhinav likhare",,"Sales Rep",242407,"Naveen Bopache_CHHINDWARA",,,"Day Ended","Day Ended",,,,,,NA,"30 Jan 2026 05:15:25 AM"
"End Day",3108945,Customer,0,"-- --","-- --","-- --","-- --",,No,,,2026-01-29,08:13:36,281670,Sundarlal,,"Sales Rep",242401,"Manoj Chouhan_KHANDWA",,,"Day Ended","Day Ended",,,22.0898794,76.2346952,,NA,"30 Jan 2026 05:15:25 AM"
"End Day",3108898,Customer,0,"-- --","-- --","-- --","-- --",,No,,,2026-01-29,11:41:38,239836,"R Vignesh",3177735,"Sales Rep",239808,"Varshini Kumar_SALEM",,,"Day Ended","Day Ended",,,11.8496049,78.1523854,,NA,"30 Jan 2026 05:15:24 AM"
"End Day",3108887,Customer,0,"-- --","-- --","-- --","-- --",,No,,,2026-01-29,19:35:45,238219,"Rajendra Bhanwriya",2839947,"Sales Rep",238101,"naveen sanodiya_JODHPUR",,,"Day Ended","Day Ended",,,26.463205,73.753925,,NA,"30 Jan 2026 05:15:24 AM"
"End Day",3108885,Customer,0,"-- --","-- --","-- --","-- --",,No,,,2026-01-29,18:27:29,262621,"VIGNESH GOBALAKRISHNAN",3730418,"Sales Rep",239802,"BALAKUMARAN _THANJAVUR",,,"Day Ended","Day Ended",,,10.5670607,79.3832143,,NA,"30 Jan 2026 05:15:24 AM"
"End Day",3108874,Customer,0,"-- --","-- --","-- --","-- --",,No,,,2026-01-29,12:46:44,242423,"AJAY PATEL",2583024,"Sales Rep",242400,"Dinesh singh ginnare_KHARGONE",,,"Day Ended","Day Ended",,,22.2714683,75.7997733,,NA,"30 Jan 2026 05:15:24 AM"
"End Day",3108866,Customer,0,"-- --","-- --","-- --","-- --",,No,,,2026-01-29,17:28:58,239275,"Rana Dixitkumar Gopalkrushna_CA_Vadodar",3455509,"Sales Rep",239261,"Manoj Singh_vadodara",,,"Day Ended","Day Ended",,,22.2272595,73.668463,,NA,"30 Jan 2026 05:15:24 AM"
"End Day",3108864,Customer,0,"-- --","-- --","-- --","-- --",,No,,,2026-01-29,17:08:24,253506,"Shivam Mishra",3435077,"Sales Rep",238116,"Shailendra Pratap Singh_BAREILLY",,,"Day Ended","Day Ended",,,28.2666027,79.1663461,,NA,"30 Jan 2026 05:15:24 AM"
"End Day",3108852,Customer,0,"-- --","-- --","-- --","-- --",,No,,,2026-01-29,17:34:49,279565,"TUMMETI SRIKANTH",3909092,"Sales Rep",240509,"Bareddy Venkateswarlu _Guntur",,,"Day Ended","Day Ended",,,16.2899397,80.4456993,,NA,"30 Jan 2026 05:15:24 AM"
"End Day",3108850,Customer,0,"-- --","-- --","-- --","-- --",,No,,,2026-01-29,08:05:48,239456,"Akash Hanumant Giri",3020129,"Sales Rep",239441,"Kiran Sansare_Satara",,,"Day Ended","Day Ended",,,17.7024974,74.1714665,,NA,"30 Jan 2026 05:15:24 AM"
"End Day",3108848,Customer,0,"-- --","-- --","-- --","-- --",,No,,,2026-01-29,10:22:46,257788,"Ajay Kushvah",3655961,"Sales Rep",242402,"AMIT TIWARI_DHAR",,,"Day Ended","Day Ended",,,21.950285,75.13884,,NA,"30 Jan 2026 05:15:24 AM"
"End Day",3108841,Customer,0,"-- --","-- --","-- --","-- --",,No,,,2026-01-29,08:05:22,243632,"Alla Prakash Reddy",3402969,"Sales Rep",240668,"RUDRA REDDY Y _Jadcharla",,,"Day Ended","Day Ended",,,16.9796057,78.2585586,,NA,"30 Jan 2026 05:15:24 AM"
"End Day",3108806,Customer,0,"-- --","-- --","-- --","-- --",,No,,,2026-01-29,17:15:51,241153,"Nayan Sharma",2617926,"Sales Rep",241110,"Rajib Dey_Dibrugarh",,,"Day Ended","Day Ended",,,,,,NA,"30 Jan 2026 05:15:23 AM"
"End Day",3108804,Customer,0,"-- --","-- --","-- --","-- --",,No,,,2026-01-29,08:02:32,281041,"GANDHI T",3940618,"Sales Rep",239763,"JAYAKUMAR C_VILLUPURAM",,,"Day Ended","Day Ended",,,12.3644139,79.3830873,,NA,"30 Jan 2026 05:15:23 AM"
"End Day",3108799,Customer,0,"-- --","-- --","-- --","-- --",,No,,,2026-01-29,12:28:47,255689,"Rohit Kumar",3609479,"Sales Rep",238163,"Mukesh lohani_AMBALA",,,"Day Ended","Day Ended",,,30.2478154,77.1010922,,NA,"30 Jan 2026 05:15:23 AM"
"End Day",3108797,Customer,0,"-- --","-- --","-- --","-- --",,No,,,2026-01-29,16:28:12,257695,SRINATH,,"Sales Rep",231720,"Amit reddy_CHIKKABALLAPURA",,,"Day Ended","Day Ended",,,,,,NA,"30 Jan 2026 05:15:23 AM"
"End Day",3108768,Customer,0,"-- --","-- --","-- --","-- --",,No,,,2026-01-29,10:08:33,239247,"Dhiraj Kate_Aalephata",2617894,"Sales Rep",239231,"Yogesh Kadam_Narayangaon",,,"Day Ended","Day Ended",,,19.0441908,74.1595332,,NA,"30 Jan 2026 05:15:23 AM"
"End Day",3108762,Customer,0,"-- --","-- --","-- --","-- --",,No,,,2026-01-29,11:58:31,238141,"kapil Tyagi_Amritsar",A75,"Territory Manager",238136,"Sandeep Kumar_BHATINDA",,,"Day Ended","Day Ended",,,31.4537688,74.943655,,NA,"30 Jan 2026 05:15:23 AM"
"End Day",3108761,Customer,0,"-- --","-- --","-- --","-- --",,No,,,2026-01-29,17:27:38,244058,"Arun kumar",3290603,"Sales Rep",238130,"Mohit Kumar Tomar_Hapur",,,"Day Ended","Day Ended",,,28.7967764,77.8352474,,NA,"30 Jan 2026 05:15:23 AM"
"End Day",3108743,Customer,0,"-- --","-- --","-- --","-- --",,No,,,2026-01-29,07:58:32,268141,"CHINMAYA DAS",,"Sales Rep",242330,"Vacant BIDHU KALYANKAR_BHUBNESHWAR",,,"Day Ended","Day Ended",,,20.5096316,85.6994977,,NA,"30 Jan 2026 05:15:23 AM"
"End Day",3108742,Customer,0,"-- --","-- --","-- --","-- --",,No,,,2026-01-29,18:40:52,258634," veerappa kivudanavar_Hubli",D5,"Territory Manager",263313,"SURESH BIRADAR_Davengere",,,"Day Ended","Day Ended",,,15.3822967,75.1126783,,NA,"30 Jan 2026 05:15:23 AM"
"End Day",3108729,Customer,0,"-- --","-- --","-- --","-- --",,No,,,2026-01-29,23:35:58,238994,"Shekh Mohiddin Shekh Shahabuddin",3079770,"Sales Rep",243756," vacant PO_Washim",,,"Day Ended","Day Ended",,,,,,NA,"30 Jan 2026 05:15:23 AM"
"End Day",3108723,Customer,0,"-- --","-- --","-- --","-- --",,No,,,2026-01-29,21:11:37,277082,"SHREEPAD KASAR",3861966,"Sales Rep",231719,"RAVIKUMAR BASANNA _bagalkot",,,"Day Ended","Day Ended",,,16.6115615,75.4495442,,NA,"30 Jan 2026 05:15:23 AM"
"End Day",3108719,Customer,0,"-- --","-- --","-- --","-- --",,No,,,2026-01-29,20:57:16,282379,"GARAPATI RAMESH_Bellary-1 & 2",,"Sales Manager",240300,"Yankappa - Bellary",,,"Day Ended","Day Ended",,,15.1423459000,76.9300830000,,NA,"30 Jan 2026 05:15:22 AM"
"End Day",3108706,Customer,0,"-- --","-- --","-- --","-- --",,No,,,2026-01-29,18:22:01,271340,"NETHA PRAKASH P",3797416,"Sales Rep",239808,"Varshini Kumar_SALEM",,,"Day Ended","Day Ended",,,,,,NA,"30 Jan 2026 05:15:22 AM"
"End Day",3108698,Customer,0,"-- --","-- --","-- --","-- --",,No,,,2026-01-29,21:48:25,250987,"MAVILLA RAMAKRISHNA_NAGARKURNOOL",3464939,"Sales Rep",240668,"RUDRA REDDY Y _Jadcharla",,,"Day Ended","Day Ended",,,16.5624034,78.2808937,,NA,"30 Jan 2026 05:15:22 AM"
"End Day",3108688,Customer,0,"-- --","-- --","-- --","-- --",,No,,,2026-01-29,18:09:03,239753,"SOLAIRAJA SUBRAMANI -Madurai",C13,"Territory Manager",239800,"MUTHUMANI K-TRICHY",,,"Day Ended","Day Ended",,,9.9415856,77.9745626,,NA,"30 Jan 2026 05:15:22 AM"
"End Day",3108687,Customer,0,"-- --","-- --","-- --","-- --",,No,,,2026-01-29,18:58:49,279561,"Gogulamudi.Venkata Subbarao",3910111,"Sales Rep",240484,"Anuhya Pavuluri_Eluru",,,"Day Ended","Day Ended",,,16.3267539,80.9642188,,NA,"30 Jan 2026 05:15:22 AM"
"End Day",3108681,Customer,0,"-- --","-- --","-- --","-- --",,No,,,2026-01-29,16:43:17,242436,"Rupendra Kumar Napit",3050453,"Sales Rep",242408,"Deepesh Tyagi_CHHATARPUR",,,"Day Ended","Day Ended",,,24.1796869,79.8880115,,NA,"30 Jan 2026 05:15:22 AM"
"End Day",3108672,Customer,0,"-- --","-- --","-- --","-- --",,No,,,2026-01-29,07:52:30,280455,"CHADIPIRALLA MUNIREDDYGARI VEERA REDDY",,"Sales Rep",240519,"M SUBBA REDDY_proddatur",,,"Day Ended","Day Ended",,,14.7864018,78.449187,,NA,"30 Jan 2026 05:15:22 AM"
"End Day",3108671,Customer,0,"-- --","-- --","-- --","-- --",,No,,,2026-01-29,19:29:47,281325,"Sudhanshu Asati",3948646,"Sales Rep",242405,"Soumya Sawaran_SAGAR",,,"Day Ended","Day Ended",,,23.382255,79.0195761,,NA,"30 Jan 2026 05:15:22 AM"
"End Day",3108667,Customer,0,"-- --","-- --","-- --","-- --",,No,,,2026-01-29,18:31:32,240485,K.PRASANTH_KHAMMAM,C11,"Territory Manager",240482,"PARISE VENKATA CHALAPATHI RAO_Vijayawada",,,"Day Ended","Day Ended",,,17.2457467000,80.1389733000,,NA,"30 Jan 2026 05:15:22 AM"
"End Day",3108661,Customer,0,"-- --","-- --","-- --","-- --",,No,,,2026-01-29,07:51:11,239285,"Pateliya Sureshbhai Dayabhai_CA_Talaja",3370045,"Sales Rep",239264,"Deepak Chaturvedi_Bhavnagar",,,"Day Ended","Day Ended",,,22.1839661,71.6462791,,NA,"30 Jan 2026 05:15:22 AM"
"End Day",3108654,Customer,0,"-- --","-- --","-- --","-- --",,No,,,2026-01-29,18:31:34,240341,"VARUN M_davengere 2",A51,"Territory Manager",263313,"SURESH BIRADAR_Davengere",,,"Day Ended","Day Ended",,,,,,NA,"30 Jan 2026 05:15:22 AM"
"End Day",3108643,Customer,0,"-- --","-- --","-- --","-- --",,No,,,2026-01-29,07:17:26,231718,D.DHOMSE_Nashik,310,"Sales Manager",238579,"prajkta patil ",,,"Day Ended","Day Ended",,,20.2078268,74.0723798,,NA,"30 Jan 2026 05:15:22 AM"
"End Day",3108640,Customer,0,"-- --","-- --","-- --","-- --",,No,,,2026-01-29,07:49:43,277793,"SARANRAJ C",3880627,"Sales Rep",239763,"JAYAKUMAR C_VILLUPURAM",,,"Day Ended","Day Ended",,,11.5938777,79.3086608,,NA,"30 Jan 2026 05:15:22 AM"
"End Day",3108624,Customer,0,"-- --","-- --","-- --","-- --",,No,,,2026-01-29,13:50:35,238972,"Yuvraj Haribhau Bhuyar",,"Sales Rep",238962,"Kunal Gawande _Nagpur",,,"Day Ended","Day Ended",,,20.9978119,79.4518508,,NA,"30 Jan 2026 05:15:21 AM"
"End Day",3108620,Customer,0,"-- --","-- --","-- --","-- --",,No,,,2026-01-29,16:35:54,263880,"kota ramanjaneyulu",3752120,"Sales Rep",240522,"Thanrunkumar reddy_kurnool",,,"Day Ended","Day Ended",,,15.3959376,77.8735016,,NA,"30 Jan 2026 05:15:21 AM"
"End Day",3108617,Customer,0,"-- --","-- --","-- --","-- --",,No,,,2026-01-29,07:47:46,280454,"VINOTHKUMAR R",,"Sales Rep",239763,"JAYAKUMAR C_VILLUPURAM",,,"Day Ended","Day Ended",,,12.14452,79.8260867,,NA,"30 Jan 2026 05:15:21 AM"
"End Day",3108613,Customer,0,"-- --","-- --","-- --","-- --",,No,,,2026-01-29,17:51:37,273403,"Deepak kumar",3816738,"Sales Rep",238127,"Rohit Gaur_Agra",,,"Day Ended","Day Ended",,,26.8819011,78.9054982,,NA,"30 Jan 2026 05:15:21 AM"
"End Day",3108612,Customer,0,"-- --","-- --","-- --","-- --",,No,,,2026-01-29,22:28:28,239470,"Firoj shaikh",2617903,"Sales Rep",239454,"Samdhan devkatte _Osmanabad",,,"Day Ended","Day Ended",,,17.6683361,75.9055231,,NA,"30 Jan 2026 05:15:21 AM"
"End Day",3108601,Customer,0,"-- --","-- --","-- --","-- --",,No,,,2026-01-29,16:36:24,231727,"BHAVNESH NANDKISHORE TAMORE",2617906,"Sales Rep",232909,"Sachin Fakirrao Labhade _Nashik",,,"Day Ended","Day Ended",,,19.8335501,72.6943205,,NA,"30 Jan 2026 05:15:21 AM"
"End Day",3108599,Customer,0,"-- --","-- --","-- --","-- --",,No,,,2026-01-29,19:26:55,261793,"HARINDER SINGH",,"Sales Rep",238147,"Shelendra kumar_MUKTSAR",,,"Day Ended","Day Ended",,,30.2795119,74.4817187,,NA,"30 Jan 2026 05:15:21 AM"
"End Day",3108581,Customer,0,"-- --","-- --","-- --","-- --",,No,,,2026-01-29,23:41:57,238124,"Madan Verma_LUCKNOW",A81,"Territory Manager",238114,"Digvijay Singh-East UP",,,"Day Ended","Day Ended",,,26.891812,81.0171219,,NA,"30 Jan 2026 05:15:21 AM"
"End Day",3108580,Customer,0,"-- --","-- --","-- --","-- --",,No,,,2026-01-29,17:34:13,245185,"Bidhan Das_Jamalpur",3362957,"Sales Rep",241197,"Masud Rijwan_BERHAMPORE",,,"Day Ended","Day Ended",,,23.9435524,88.4443042,,NA,"30 Jan 2026 05:15:21 AM"
"End Day",3108574,Customer,0,"-- --","-- --","-- --","-- --",,No,,,2026-01-29,07:44:02,247060,"Pagadala amruthababu_Sattenapalli",3416184,"Sales Rep",240510,"CHINTA SAI CHANDRA SEKHAR RAO _Sattenapalli",,,"Day Ended","Day Ended",,,,,,NA,"30 Jan 2026 05:15:21 AM"
"End Day",3108565,Customer,0,"-- --","-- --","-- --","-- --",,No,,,2026-01-29,07:43:17,262786,"Vivek Sembekar",3727834,"Sales Rep",242407,"Naveen Bopache_CHHINDWARA",,,"Day Ended","Day Ended",,,21.6411786,78.7963166,,NA,"30 Jan 2026 05:15:21 AM"
"End Day",3108545,Customer,0,"-- --","-- --","-- --","-- --",,No,,,2026-01-29,07:41:10,245526,"Nidamanuri kodan saheb_Medikonduru",3375942,"Sales Rep",240510,"CHINTA SAI CHANDRA SEKHAR RAO _Sattenapalli",,,"Day Ended","Day Ended",,,16.3462413,80.2999014,,NA,"30 Jan 2026 05:15:21 AM"
"End Day",3108538,Customer,0,"-- --","-- --","-- --","-- --",,No,,,2026-01-29,17:59:21,245095,"Amit Kumar Upadhyay_Ghazipur",3346688,"Sales Rep",238123,"Manish Singh_VARANASI",,,"Day Ended","Day Ended",,,25.5377659,83.5035993,,NA,"30 Jan 2026 05:15:21 AM"
"End Day",3108536,Customer,0,"-- --","-- --","-- --","-- --",,No,,,2026-01-29,22:04:46,276075,"Ashish Chandrashekhar Chakule",3752187,"Sales Rep",238969,"Vacant Po _Mukutban",,,"Day Ended","Day Ended",,,,,,NA,"30 Jan 2026 05:15:20 AM"
"End Day",3108522,Customer,0,"-- --","-- --","-- --","-- --",,No,,,2026-01-29,15:29:37,242412,"kamal hassan_DHAMTARI",D75,"Territory Manager",271703,"Dharmendra Malviya",,,"Day Ended","Day Ended",,,20.7190643,81.5309623,,NA,"30 Jan 2026 05:15:20 AM"
"End Day",3108514,Customer,0,"-- --","-- --","-- --","-- --",,No,,,2026-01-29,16:10:55,263091,"PANKAJ KUMAR",3735139,"Sales Rep",238149,"Vinod Kumar Chaubey_PATIALA",,,"Day Ended","Day Ended",,,30.1552197,76.2038267,,NA,"30 Jan 2026 05:15:20 AM"
"End Day",3108500,Customer,0,"-- --","-- --","-- --","-- --",,No,,,2026-01-29,07:37:40,241139,"Subrata Sasmal",2617779,"Sales Rep",241101,"Susovan Ghosh_West Medinipur",,,"Day Ended","Day Ended",,,22.5725734,87.679176,,NA,"30 Jan 2026 05:15:20 AM"
"End Day",3108497,Customer,0,"-- --","-- --","-- --","-- --",,No,,,2026-01-29,15:59:29,255835,"Erda Nileshkumar Kanabhai",3621074,"Sales Rep",239268,"Karan Hadvani_Junagadh",,,"Day Ended","Day Ended",,,21.083181,70.2903085,,NA,"30 Jan 2026 05:15:20 AM"
"End Day",3108495,Customer,0,"-- --","-- --","-- --","-- --",,No,,,2026-01-29,07:37:32,239233,"Sanjay Sadashiv Dhamale  _Peth",2617905,"Sales Rep",239231,"Yogesh Kadam_Narayangaon",,,"Day Ended","Day Ended",,,,,,NA,"30 Jan 2026 05:15:20 AM"
"End Day",3108493,Customer,0,"-- --","-- --","-- --","-- --",,No,,,2026-01-29,17:32:56,240511,"Kishore Reddy _Piduguralla",C37,"Territory Manager",240508,"Murali G _guntur",,,"Day Ended","Day Ended",,,,,,NA,"30 Jan 2026 05:15:20 AM"
"End Day",3108492,Customer,0,"-- --","-- --","-- --","-- --",,No,,,2026-01-29,14:20:43,262197,Nishu,3728171,"Sales Rep",238122,"Ankit Singh _MORADABAD",,,"Day Ended","Day Ended",,,28.9167315,78.3671592,,NA,"30 Jan 2026 05:15:20 AM"
"End Day",3108474,Customer,0,"-- --","-- --","-- --","-- --",,No,,,2026-01-29,16:05:53,277851,Basavaraj,3833161,"Sales Rep",244051,Vacant_Gangavathi,,,"Day Ended","Day Ended",,,15.7542183,76.1902117,,NA,"30 Jan 2026 05:15:20 AM"
"End Day",3108473,Customer,0,"-- --","-- --","-- --","-- --",,No,,,2026-01-29,12:12:28,279837,"Movva Meghana",,"Sales Rep",240515,"KARRI VINAY KUMAR SO_tenali",,,"Day Ended","Day Ended",,,16.1854424,80.3402379,,NA,"30 Jan 2026 05:15:20 AM"
"End Day",3108467,Customer,0,"-- --","-- --","-- --","-- --",,No,,,2026-01-29,12:35:23,240508,"Murali G _guntur",,"Sales Manager",240507,"Vacant BL_Vijayawada",,,"Day Ended","Day Ended",,,16.1477945245084,80.3260498105528,,NA,"30 Jan 2026 05:15:20 AM"
"End Day",3108461,Customer,0,"-- --","-- --","-- --","-- --",,No,,,2026-01-29,07:34:34,262131,"LOGESH K S",3722809,"Sales Rep",239804,"Senthil Kumar _Trichy",,,"Day Ended","Day Ended",,,,,,NA,"30 Jan 2026 05:15:20 AM"
"End Day",3108460,Customer,0,"-- --","-- --","-- --","-- --",,No,,,2026-01-29,18:11:49,268388,"RITURAJ PARMAR",3769771,"Sales Rep",242397,"RAJKUMAR MEENA_UJJAIN",,,"Day Ended","Day Ended",,,,,,NA,"30 Jan 2026 05:15:20 AM"
"End Day",3108454,Customer,0,"-- --","-- --","-- --","-- --",,No,,,2026-01-29,20:33:32,276805,"JIBAN KRISNO SAHA ",3860958,"Sales Rep",241111,"Vacant SO_Jalpaiguri",,,"Day Ended","Day Ended",,,26.131535,89.4586833,,NA,"30 Jan 2026 05:15:20 AM"
"End Day",3108449,Customer,0,"-- --","-- --","-- --","-- --",,No,,,2026-01-29,16:26:39,254627,"SENAUL SK",3588994,"Sales Rep",241198,"MD HAFIJUR RAHAMAN_MALDA",,,"Day Ended","Day Ended",,,24.7663426,87.9591239,,NA,"30 Jan 2026 05:15:20 AM"
"End Day",3108445,Customer,0,"-- --","-- --","-- --","-- --",,No,,,2026-01-29,22:29:08,239283,"Parmar Gaurangkumar Dineshbhai_CA_Halvad",3370042,"Sales Rep",239265,"Jaywant Wable_Surendranagar",,,"Day Ended","Day Ended",,,23.0797636,71.2120304,,NA,"30 Jan 2026 05:15:20 AM"
"End Day",3108429,Customer,0,"-- --","-- --","-- --","-- --",,No,,,2026-01-29,22:14:54,244841,"Dnyaneshwar sahadev Misal_Rajur",3333187,"Sales Rep",239176,"Aniket Sarnaik_JALNA",,,"Day Ended","Day Ended",,,20.1049727,75.765191,,NA,"30 Jan 2026 05:15:19 AM"
"End Day",3108425,Customer,0,"-- --","-- --","-- --","-- --",,No,,,2026-01-29,13:43:51,245118,"Jay Dogaya_Boruth",3357416,"Sales Rep",242400,"Dinesh singh ginnare_KHARGONE",,,"Day Ended","Day Ended",,,22.1716367,76.067375,,NA,"30 Jan 2026 05:15:19 AM"
"End Day",3108421,Customer,0,"-- --","-- --","-- --","-- --",,No,,,2026-01-29,07:31:24,271116,"Jaydeep Patel	",3788114,"Sales Rep",242404,"Pankaj Singh Bisht_SHIVPURI",,,"Day Ended","Day Ended",,,25.7903376,78.1102329,,NA,"30 Jan 2026 05:15:19 AM"
"End Day",3108409,Customer,0,"-- --","-- --","-- --","-- --",,No,,,2026-01-29,19:43:17,259378,"VIJAY S",,"Sales Rep",239763,"JAYAKUMAR C_VILLUPURAM",,,"Day Ended","Day Ended",,,12.3397133,79.58619,,NA,"30 Jan 2026 05:15:19 AM"
"End Day",3108406,Customer,0,"-- --","-- --","-- --","-- --",,No,,,2026-01-29,07:30:32,271841,"Ratheesha H E",3796708,"Sales Rep",231722,"Pushpa B P_MYSORE",,,"Day Ended","Day Ended",,,12.2500898,76.2063283,,NA,"30 Jan 2026 05:15:19 AM"
"End Day",3108405,Customer,0,"-- --","-- --","-- --","-- --",,No,,,2026-01-29,20:44:55,270202,"PAGILLA NAGARAJU",3780538,"Sales Rep",240478,"Annasamudram Nandan kamesh _Mahabubabad",,,"Day Ended","Day Ended",,,17.57031,79.9940583,,NA,"30 Jan 2026 05:15:19 AM"
"End Day",3108403,Customer,0,"-- --","-- --","-- --","-- --",,No,,,2026-01-29,21:01:28,274371,"Hanumanta Gangadhar Wankhede",3477205,"Sales Rep",246702,"ajay jadhav_Aurangabad",,,"Day Ended","Day Ended",,,,,,NA,"30 Jan 2026 05:15:19 AM"
"End Day",3108402,Customer,0,"-- --","-- --","-- --","-- --",,No,,,2026-01-29,07:29:38,242444,"UMA KANTH MISHRA",2581328,"Sales Rep",242330,"Vacant BIDHU KALYANKAR_BHUBNESHWAR",,,"Day Ended","Day Ended",,,20.4513314,86.3210409,,NA,"30 Jan 2026 05:15:19 AM"
"End Day",3108393,Customer,0,"-- --","-- --","-- --","-- --",,No,,,2026-01-29,07:28:39,240637,"VEESAM . GOPI",,"Sales Rep",281890,"LOKANTHU LOKESH_Vijayawada",,,"Day Ended","Day Ended",,,16.7382944,80.3061791,,NA,"30 Jan 2026 05:15:19 AM"
"End Day",3108361,Customer,0,"-- --","-- --","-- --","-- --",,No,,,2026-01-29,07:25:28,239264,"Deepak Chaturvedi_Bhavnagar",H6,"Territory Manager",239259,"Chetanbhai Prajapati_Gujarat",,,"Day Ended","Day Ended",,,22.1837533,71.6460367,,NA,"30 Jan 2026 05:15:19 AM"
"End Day",3108349,Customer,0,"-- --","-- --","-- --","-- --",,No,,,2026-01-29,20:16:55,268308,"Chittimodula Chandrasekhar",3760490,"Sales Rep",240485,K.PRASANTH_KHAMMAM,,,"Day Ended","Day Ended",,,17.24271,80.1467167,,NA,"30 Jan 2026 05:15:19 AM"
