"Activity Type","Transaction Ref ID",Customer/CFA,"Customer/CFA ID","Customer/CFA external ID","Customer/CFA Name","Customer Address",City,"customer subtype",planned(Yes/No),"Customer/CFA Latitude","Customer/CFA Longitude","Visit Date","Visit Time","User BR ID","User Name","User Emp Role ID","user role",reportsToBRID,reportsToName,partner_name,partner_external_id,Purpose,Details,starting_km_reading,ending_km_reading,latitude,longitude,"Activity Address","Distance Travelled (in meters)","Synced On"
"End Day",2639481,Customer,0,"-- --","-- --","-- --","-- --",,No,,,2025-12-16,19:10:00,245042,"Naresh Ramdas Farkade_Amthana",3316788,"Sales Rep",246702,"ajay jadhav_Aurangabad",,,"Day Ended","Day Ended",,,20.2202883,75.5881433,,NA,"17 Dec 2025 09:22:27 AM"
Tourvisit,15977701,Customer,0,"-- --","-- --","-- --","-- --",,No,,,2025-12-16,09:46:35,271700,"DESAI SREENIVASULU",3803283,"Sales Rep",240518,Bhanuprakash_Adoni,,,"Beginning of the day","Day start ",,,15.859019,77.2470024,"V65W+HR3, Kosigi, Andhra Pradesh 518313, India",NA,"17 Dec 2025 09:20:31 AM"
"End Day",2640616,Customer,0,"-- --","-- --","-- --","-- --",,No,,,2025-12-16,17:25:27,269961,Shubham Fakirrao Jadhav ,3768543,"Sales Rep",231725,"Dhananjay Ushir_PIMPALGAON BASVANT",,,"Day Ended","Day Ended",,,20.1961651,74.0154441,,NA,"17 Dec 2025 09:14:41 AM"
"End Day",2641852,Customer,0,"-- --","-- --","-- --","-- --",,No,,,2025-12-16,20:53:56,245321,"Shekhar Saini_Sumerpur",3363417,"Sales Rep",238107,"Jagat pal_Sumerpur",,,"Day Ended","Day Ended",,,25.374267,72.786777,,NA,"17 Dec 2025 09:04:02 AM"
"End Day",2639497,Customer,0,"-- --","-- --","-- --","-- --",,No,,,2025-12-16,22:03:43,273443,"Kallayya M",3796526,"Sales Rep",258634," veerappa kivudanavar_Hubli",,,"Day Ended","Day Ended",,,15.4422647,74.8487169,,NA,"17 Dec 2025 09:00:32 AM"
"End Day",2639813,Customer,0,"-- --","-- --","-- --","-- --",,No,,,2025-12-16,20:59:06,276074,"Akash Prakash Thakare",3752197,"Sales Rep",238969,"Vacant Po _Mukutban",,,"Day Ended","Day Ended",,,20.1782002,78.3151435,,NA,"17 Dec 2025 08:46:09 AM"
Campaign,33344343,Customer,15202018,"-- --",JAMMALAMADUGU_Proddatur,street,"-- --","Farmer Group",No,,,2025-12-16,18:55:39,254413,Busi Reddy Sai Tejaswar Reddy,3586339,"Sales Rep",240519,"M SUBBA REDDY_proddatur",Vijayawada,A732,"Organised Farmer Meeting","Organised Farmer Meeting",,,15.0549468805567,78.3029906354217,,NA,"17 Dec 2025 08:43:15 AM"
"End Day",2639479,Customer,0,"-- --","-- --","-- --","-- --",,No,,,2025-12-16,07:42:22,231718,D.DHOMSE_Nashik,310,"Sales Manager",238579,"prajkta patil ",,,"Day Ended","Day Ended",,,20.2078396,74.0722218,,NA,"17 Dec 2025 08:43:10 AM"
Tourvisit,15977402,Customer,0,"-- --","-- --","-- --","-- --",,No,,,2025-12-16,08:40:25,269567,Deepak Ashok Kale ,3768650,"Sales Rep",231725,"Dhananjay Ushir_PIMPALGAON BASVANT",,,"Beginning of the day","start of the day ",,,20.2816206,73.938301,"pumpalgaon road, beside Sai Gajanan petrolium, Vani, Tisgaon, Maharashtra 422215, India",NA,"17 Dec 2025 08:40:02 AM"
Tourvisit,15977401,Customer,0,"-- --","-- --","-- --","-- --",,No,,,2025-12-16,22:07:57,280599,"Satyam Parashar",,"Sales Rep",242401,"Manoj Chouhan_KHANDWA",,,"End of the day","organigecin farmer meeting ",,52803.00,22.3444506,77.084837,"Btl, Masangaon, Harda, Madhya Pradesh 461331, India",NA,"17 Dec 2025 08:39:58 AM"
"End Day",2642269,Customer,0,"-- --","-- --","-- --","-- --",,No,,,2025-12-16,22:08:02,280599,"Satyam Parashar",,"Sales Rep",242401,"Manoj Chouhan_KHANDWA",,,"Day Ended","Day Ended",,,22.3444506,77.084837,,NA,"17 Dec 2025 08:39:57 AM"
"End Day",2639017,Customer,0,"-- --","-- --","-- --","-- --",,No,,,2025-12-16,22:54:45,280598,"Talasila Venkata Sai Krishna",,"Sales Rep",240515,"KARRI VINAY KUMAR SO_tenali",,,"Day Ended","Day Ended",,,16.1070279,80.6209085,,NA,"17 Dec 2025 08:32:48 AM"
"End Day",2641496,Customer,0,"-- --","-- --","-- --","-- --",,No,,,2025-12-16,19:25:13,274707,"K Santosh Patra",3807920,"Sales Rep",268133,"PARAMITA PRIYADARSHANI_Jeypore",,,"Day Ended","Day Ended",,,19.0796123,83.8077861,,NA,"17 Dec 2025 08:31:35 AM"
"End Day",2641194,Customer,0,"-- --","-- --","-- --","-- --",,No,,,2025-12-16,22:50:39,274527,"SHIJU S",3831729,"Sales Rep",239812,"Vinu Kumar S _Pallakad",,,"Day Ended","Day Ended",,,10.7101683,76.6164299,,NA,"17 Dec 2025 08:22:01 AM"
"End Day",2653427,Customer,0,"-- --","-- --","-- --","-- --",,No,,,2025-12-16,19:05:07,274463,"Jadhav Dhiraj Sandip ",3823435,"Sales Rep",231724,"Shubham Shinde_NIPHAD",,,"Day Ended","Day Ended",,,20.0490132,74.2017454,,NA,"17 Dec 2025 08:03:39 AM"
"End Day",2639737,Customer,0,"-- --","-- --","-- --","-- --",,No,,,2025-12-16,19:04:46,268359,"ISAHAK ALI",3767541,"Sales Rep",241198,"MD HAFIJUR RAHAMAN_MALDA",,,"Day Ended","Day Ended",,,25.7408542,88.153409,,NA,"17 Dec 2025 08:00:04 AM"
Tourvisit,15977197,Customer,0,"-- --","-- --","-- --","-- --",,No,,,2025-12-16,22:25:14,254869,"Suvendu Sarkar ",3592057,"Sales Rep",241197,"Masud Rijwan_BERHAMPORE",,,"End of the day","End of the day ",,,24.112215,88.66179,"4M66+QQF, School Rd, Madhubona, West Bengal 742305, India",NA,"17 Dec 2025 07:57:53 AM"
"End Day",2640098,Customer,0,"-- --","-- --","-- --","-- --",,No,,,2025-12-16,22:25:19,254869,"Suvendu Sarkar ",3592057,"Sales Rep",241197,"Masud Rijwan_BERHAMPORE",,,"Day Ended","Day Ended",,,24.112215,88.66179,,NA,"17 Dec 2025 07:57:53 AM"
"Start Day",2653330,Customer,0,"-- --","-- --","-- --","-- --",,No,,,2025-12-16,09:28:41,239805,"MUTHU IRULAPPAN_Dindigul",B29,"Territory Manager",239800,"MUTHUMANI K-TRICHY",,,"Day Started","Day Started",,,10.288082,77.8519145,,NA,"17 Dec 2025 07:56:23 AM"
"End Day",2639749,Customer,0,"-- --","-- --","-- --","-- --",,No,,,2025-12-16,19:58:37,270570,"Mr. Aditya Sambhaji Aher",3791843,"Sales Rep",239250,"Bhushan Gaikwad_Ahmednagar",,,"Day Ended","Day Ended",,,19.3794283,75.1223004,,NA,"17 Dec 2025 07:56:09 AM"
"End Day",2640280,Customer,0,"-- --","-- --","-- --","-- --",,No,,,2025-12-16,20:30:58,239470,"Firoj shaikh",2617903,"Sales Rep",239454,"Samdhan devkatte _Osmanabad",,,"Day Ended","Day Ended",,,17.6937892,75.893964,,NA,"17 Dec 2025 07:53:26 AM"
"End Day",2638747,Customer,0,"-- --","-- --","-- --","-- --",,No,,,2025-12-16,20:10:05,274223,"JATOTH VEERANNA",3823528,"Sales Rep",240486,"Vacant SO _Kothagudem",,,"Day Ended","Day Ended",,,17.6218061,80.6434312,,NA,"17 Dec 2025 07:52:07 AM"
"End Day",2639178,Customer,0,"-- --","-- --","-- --","-- --",,No,,,2025-12-16,21:23:31,239802,"BALAKUMARAN _THANJAVUR",A47,"Territory Manager",239800,"MUTHUMANI K-TRICHY",,,"Day Ended","Day Ended",,,10.7740869,79.1661936,,NA,"17 Dec 2025 07:41:34 AM"
"Start Day",2653121,Customer,0,"-- --","-- --","-- --","-- --",,No,,,2025-12-16,07:48:28,276086,"KEVAL PATEL",3852288,"Sales Rep",239261,"Manoj Singh_vadodara",,,"Day Started","Day Started",,,22.0584512,73.3094485,,NA,"17 Dec 2025 07:41:07 AM"
"End Day",2638975,Customer,0,"-- --","-- --","-- --","-- --",,No,,,2025-12-16,20:47:49,238139,"Sachin Kumar_MOGA",A87,"Territory Manager",238136,"Sandeep Kumar_BHATINDA",,,"Day Ended","Day Ended",,,30.8082367,75.1805433,,NA,"17 Dec 2025 07:40:58 AM"
"End Day",2641383,Customer,0,"-- --","-- --","-- --","-- --",,No,,,2025-12-16,23:10:37,278101,"Nikita Jivansing Dumale",3872536,"Sales Rep",239392,"sadanand kamale_JALGAON",,,"Day Ended","Day Ended",,,18.5227524,73.7624029,,NA,"17 Dec 2025 07:31:28 AM"
"End Day",2640187,Customer,0,"-- --","-- --","-- --","-- --",,No,,,2025-12-16,19:15:19,239277,"SUDANI PRADIPKUMAR ARVINDBHAI _DHORAJI",3401379,"Sales Rep",239263,"mahek amreliya_Rajkot",,,"Day Ended","Day Ended",,,21.7355264,70.4563938,,NA,"17 Dec 2025 07:28:36 AM"
"End Day",2646860,Customer,0,"-- --","-- --","-- --","-- --",,No,,,2025-12-16,20:15:56,278809,"ALLAMASETTI SOMASEKHAR",3903361,"Sales Rep",240487,"Lakshman Nallapati_TADEPALLIGUDEM",,,"Day Ended","Day Ended",,,16.8773094,81.5155117,,NA,"17 Dec 2025 07:24:02 AM"
"Visit Note",10573628,Customer,18239145,"-- --","S.R Fertilizer ","pudhur Road, nagalapuram , Vilathikulam , Nagalapuram, Tuticorin, Tamil Nadu, India, 628904",Nagalapuram,Retailer,No,9.233505800000,78.135346900000,2025-12-16,15:38:46,278847,SUNDARAPANDI.K,3896516,"Sales Rep",239803,"Sowenderrajan L _Tirunelveli","Trichy Warehouse",A772,"Customer Note",ReVisit,,,9.2335449,78.1353568,"64MP+C67, Road, Duraisamypuram, நாகலாபுரம், தமிழ் நாடு 628904, India",4.4819,"17 Dec 2025 07:12:13 AM"
"End Day",2639338,Customer,0,"-- --","-- --","-- --","-- --",,No,,,2025-12-16,20:35:12,245002,"M SUNEEL KUMAR_Gadwal",I4,"Territory Manager",240666,"Bera Sharath Chandra Kiran",,,"Day Ended","Day Ended",,,16.2197672,77.7985551,,NA,"17 Dec 2025 07:01:51 AM"
"End Day",2638956,Customer,0,"-- --","-- --","-- --","-- --",,No,,,2025-12-16,19:10:32,263554,"Rahul Maurya",3748009,"Sales Rep",263438,"Manish Verma_jhansi",,,"Day Ended","Day Ended",,,25.4562452,78.5953452,,NA,"17 Dec 2025 06:59:46 AM"
Tourvisit,15977003,Customer,0,"-- --","-- --","-- --","-- --",,No,,,2025-12-16,18:26:08,269490,"GURIJALA PRAVEEN",3775366,"Sales Rep",240481,"Vacant SO_parkala",,,"End of the day","day end ",,,18.3804917,79.6131918,"9JH7+X6C, Arepally Village Main Rd, Arepally, Telangana 506356, India",NA,"17 Dec 2025 06:57:52 AM"
"End Day",2639255,Customer,0,"-- --","-- --","-- --","-- --",,No,,,2025-12-16,18:26:14,269490,"GURIJALA PRAVEEN",3775366,"Sales Rep",240481,"Vacant SO_parkala",,,"Day Ended","Day Ended",,,18.3804917,79.6131918,,NA,"17 Dec 2025 06:57:52 AM"
"End Day",2640907,Customer,0,"-- --","-- --","-- --","-- --",,No,,,2025-12-16,22:45:53,277546,Rajagopalan,3875401,"Sales Rep",239802,"BALAKUMARAN _THANJAVUR",,,"Day Ended","Day Ended",,,10.6703199,79.4375116,,NA,"17 Dec 2025 06:54:27 AM"
"End Day",2645955,Customer,0,"-- --","-- --","-- --","-- --",,No,,,2025-12-16,22:34:46,239779,"KEERTHIKESWARAN J",3185485,"Sales Rep",239765,"Sakthivel B _Kancheepuram",,,"Day Ended","Day Ended",,,12.52945,80.086105,,NA,"17 Dec 2025 06:49:28 AM"
"End Day",2650350,Customer,0,"-- --","-- --","-- --","-- --",,No,,,2025-12-16,23:12:23,277567,Chandan Prakash Thete,3872179,"Sales Rep",231725,"Dhananjay Ushir_PIMPALGAON BASVANT",,,"Day Ended","Day Ended",,,20.1781881,74.0655572,,NA,"17 Dec 2025 06:39:28 AM"
"End Day",2641763,Customer,0,"-- --","-- --","-- --","-- --",,No,,,2025-12-16,20:41:31,240303,"Kattamuri S V N S S Bhaskar Mani Sekhar_Raichur",C34,"Territory Manager",240300,"Yankappa - Bellary",,,"Day Ended","Day Ended",,,16.2037367,77.3397467,,NA,"17 Dec 2025 06:37:39 AM"
"End Day",2639682,Customer,0,"-- --","-- --","-- --","-- --",,No,,,2025-12-16,18:04:40,238264,"Mahendra Singh",3186201,"Sales Rep",238171,"ANIL KUMAR _Fatehabad",,,"Day Ended","Day Ended",,,29.3916138,75.5408432,,NA,"17 Dec 2025 06:25:19 AM"
Tourvisit,15976896,Customer,0,"-- --","-- --","-- --","-- --",,No,,,2025-12-16,08:26:45,261793,"HARINDER SINGH",,"Sales Rep",238147,"Shelendra kumar_MUKTSAR",,,"Beginning of the day","good morning sir ji ",46145.00,,30.2795141,74.4817623,"7FJJ+2VW, Jhurar, Punjab 152112, India",NA,"17 Dec 2025 06:24:24 AM"
"End Day",2640122,Customer,0,"-- --","-- --","-- --","-- --",,No,,,2025-12-16,20:17:14,261793,"HARINDER SINGH",,"Sales Rep",238147,"Shelendra kumar_MUKTSAR",,,"Day Ended","Day Ended",,,30.2795192,74.4817105,,NA,"17 Dec 2025 06:24:24 AM"
"End Day",2639816,Customer,0,"-- --","-- --","-- --","-- --",,No,,,2025-12-16,20:15:28,276015,Jagadeesha.k,3796284,"Sales Rep",240304,"GARAPATI RAMESH SO-Kurugodu",,,"Day Ended","Day Ended",,,15.3482853,76.8345498,,NA,"17 Dec 2025 06:15:10 AM"
"Start Day",2651999,Customer,0,"-- --","-- --","-- --","-- --",,No,,,2025-12-16,20:44:13,269752,"Ravinder Sharma",37733973,"Sales Rep",238139,"Sachin Kumar_MOGA",,,"Day Started","Day Started",,,30.6636662427238,74.9791975025329,,NA,"17 Dec 2025 06:10:46 AM"
Campaign,33342640,Customer,17175372,"-- --",Gill_moga,"street, Moga, Bagha Purana, B, Moga, Moga, Punjab, India, 142049",Moga,"Farmer Group",No,30.663048498259,74.978563963402,2025-12-16,20:44:23,269752,"Ravinder Sharma",37733973,"Sales Rep",238139,"Sachin Kumar_MOGA",A123-Ludhiana,A123,"Small Group Meeting","Small Group Meeting",,,30.6636662427238,74.9791975025329,"street, Moga, Bagha Purana, B, Moga, Moga, Punjab, 142049",91.5939,"17 Dec 2025 06:10:36 AM"
"End Day",2639278,Customer,0,"-- --","-- --","-- --","-- --",,No,,,2025-12-16,20:56:39,268303,"Karthik R",3767412,"Sales Rep",239811,"M SIVAKUMAR _Coimbatore",,,"Day Ended","Day Ended",,,10.5086817,77.2036533,,NA,"17 Dec 2025 05:33:19 AM"
"End Day",2650861,Customer,0,"-- --","-- --","-- --","-- --",,No,,,2025-12-16,23:05:51,241198,"MD HAFIJUR RAHAMAN_MALDA",K1,"Territory Manager",241109,"Mohit Kumar Saha_Corporate Tea",,,"Day Ended","Day Ended",,,24.8605572,88.0203931,,NA,"17 Dec 2025 05:16:27 AM"
"End Day",2650856,Customer,0,"-- --","-- --","-- --","-- --",,No,,,2025-12-16,22:43:20,242325,"Gaurav Kandpal_BHOPAL",8104727,"Sales Manager",242322,"Nazhat kittur_CENTRAL",,,"Day Ended","Day Ended",,,23.7398501000,78.8083366000,,NA,"17 Dec 2025 05:16:27 AM"
"End Day",2650737,Customer,0,"-- --","-- --","-- --","-- --",,No,,,2025-12-16,21:30:06,239283,"Parmar Gaurangkumar Dineshbhai_CA_Halvad",3370042,"Sales Rep",239265,"Jaywant Wable_Surendranagar",,,"Day Ended","Day Ended",,,23.0797948,71.2119237,,NA,"17 Dec 2025 05:16:26 AM"
"End Day",2650731,Customer,0,"-- --","-- --","-- --","-- --",,No,,,2025-12-16,21:40:35,238170,"Kuldeep Godara  _Hissar",A71,"Territory Manager",238159,Mohit_TL,,,"Day Ended","Day Ended",,,29.1731377000,75.7158586000,,NA,"17 Dec 2025 05:16:26 AM"
"End Day",2650728,Customer,0,"-- --","-- --","-- --","-- --",,No,,,2025-12-16,21:52:54,271271,"AKASHKUMAR VAGHELA",3792058,"Sales Rep",239260,"Ajit Shipte_gandhinagar",,,"Day Ended","Day Ended",,,23.2369039,72.6684988,,NA,"17 Dec 2025 05:16:26 AM"
"End Day",2650716,Customer,0,"-- --","-- --","-- --","-- --",,No,,,2025-12-16,21:16:13,239231,"Yogesh Kadam_Narayangaon",C65,"Territory Manager",239230,"Purushottam Ghatode-Pune",,,"Day Ended","Day Ended",,,19.1207584,73.9759837,,NA,"17 Dec 2025 05:16:26 AM"
"End Day",2650702,Customer,0,"-- --","-- --","-- --","-- --",,No,,,2025-12-16,21:09:19,243965,"Mohit Suryawanshi",3325119,"Sales Rep",242407,"Naveen Bopache_CHHINDWARA",,,"Day Ended","Day Ended",,,22.034093,78.9219495,,NA,"17 Dec 2025 05:16:26 AM"
"End Day",2650690,Customer,0,"-- --","-- --","-- --","-- --",,No,,,2025-12-16,20:59:24,278652,"RAVI KUMAR SINGH",,"Sales Rep",242414,"Vinay Kumar Singh_Bilaspur",,,"Day Ended","Day Ended",,,22.5570866,83.4726264,,NA,"17 Dec 2025 05:16:26 AM"
"End Day",2650648,Customer,0,"-- --","-- --","-- --","-- --",,No,,,2025-12-16,20:37:10,271525,"MALAKAM RAMARAO",3800400,"Sales Rep",240486,"Vacant SO _Kothagudem",,,"Day Ended","Day Ended",,,17.4561133,80.49297,,NA,"17 Dec 2025 05:16:26 AM"
"End Day",2650617,Customer,0,"-- --","-- --","-- --","-- --",,No,,,2025-12-16,18:00:24,246404,"Arun Harinkhede_Raipur",3379643,"Sales Rep",242411,"Lokesh Bhairam_DURG",,,"Day Ended","Day Ended",,,21.2427329,81.4797813,,NA,"17 Dec 2025 05:16:26 AM"
"End Day",2650602,Customer,0,"-- --","-- --","-- --","-- --",,No,,,2025-12-16,20:04:51,242403,"Chetan Singh_BHOPAL",D64,"Territory Manager",242325,"Gaurav Kandpal_BHOPAL",,,"Day Ended","Day Ended",,,23.1910474,77.4407623,,NA,"17 Dec 2025 05:16:25 AM"
"End Day",2650490,Customer,0,"-- --","-- --","-- --","-- --",,No,,,2025-12-16,21:00:18,277416,"Jalli Jagadeesh",3861050,"Sales Rep",262124,"Kottinto Sitarami Reddy_NANDAYAL",,,"Day Ended","Day Ended",,,15.3011345,78.3723122,,NA,"17 Dec 2025 05:16:25 AM"
"End Day",2650460,Customer,0,"-- --","-- --","-- --","-- --",,No,,,2025-12-16,18:30:39,276825,"KANNELURU VASU",3854234,"Sales Rep",240519,"M SUBBA REDDY_proddatur",,,"Day Ended","Day Ended",,,14.8142537,78.3491038,,NA,"17 Dec 2025 05:16:25 AM"
"End Day",2650428,Customer,0,"-- --","-- --","-- --","-- --",,No,,,2025-12-16,18:57:03,253772,"Thigulla Vinod",3560944,"Sales Rep",240480,"Karru Shiroj Kumar_Badrachalam",,,"Day Ended","Day Ended",,,18.0779996,80.8246582,,NA,"17 Dec 2025 05:16:24 AM"
"End Day",2650407,Customer,0,"-- --","-- --","-- --","-- --",,No,,,2025-12-16,18:47:53,238151,"Yatendera Rana_BARNALA",A64,"Territory Manager",239596,"Vacant TL_Punjab",,,"Day Ended","Day Ended",,,30.3601953,75.5332259,,NA,"17 Dec 2025 05:16:24 AM"
"End Day",2650374,Customer,0,"-- --","-- --","-- --","-- --",,No,,,2025-12-16,18:31:06,269488,"Arvind Kushwaha",3775523,"Sales Rep",242408,"Deepesh Tyagi_CHHATARPUR",,,"Day Ended","Day Ended",,,24.4255467,80.0403133,,NA,"17 Dec 2025 05:16:24 AM"
"End Day",2650357,Customer,0,"-- --","-- --","-- --","-- --",,No,,,2025-12-16,23:36:08,238124,"Madan Verma_LUCKNOW",A81,"Territory Manager",238114,"Digvijay Singh-East UP",,,"Day Ended","Day Ended",,,27.5659192,81.5861407,,NA,"17 Dec 2025 05:16:24 AM"
"End Day",2650350,Customer,0,"-- --","-- --","-- --","-- --",,No,,,2025-12-16,20:59:22,277567,Chandan Prakash Thete,3872179,"Sales Rep",231725,"Dhananjay Ushir_PIMPALGAON BASVANT",,,"Day Ended","Day Ended",,,,,,NA,"17 Dec 2025 05:16:24 AM"
"End Day",2650343,Customer,0,"-- --","-- --","-- --","-- --",,No,,,2025-12-16,21:15:49,238974,"Bhushan Sainath Shende",3009674,"Sales Rep",238962,"Kunal Gawande _Nagpur",,,"Day Ended","Day Ended",,,,,,NA,"17 Dec 2025 05:16:24 AM"
"End Day",2650306,Customer,0,"-- --","-- --","-- --","-- --",,No,,,2025-12-16,18:06:28,269559,"INDRAJIT MONDAL",3779883,"Sales Rep",241101,"Susovan Ghosh_West Medinipur",,,"Day Ended","Day Ended",,,22.4378099,87.5000903,,NA,"17 Dec 2025 05:16:23 AM"
"End Day",2650266,Customer,0,"-- --","-- --","-- --","-- --",,No,,,2025-12-16,19:41:03,244942,"Sushil mandal_Rajganj",3350092,"Sales Rep",241199,"GAUTAM  CHAUDHURI_ISLAMPUR",,,"Day Ended","Day Ended",,,26.5309302,88.5898057,,NA,"17 Dec 2025 05:16:23 AM"
"End Day",2650241,Customer,0,"-- --","-- --","-- --","-- --",,No,,,2025-12-16,17:42:28,254332,"Sager Puri",3561257,"Sales Rep",231726,"Yogesh Bharti_Satana",,,"Day Ended","Day Ended",,,20.552635,74.2933689,,NA,"17 Dec 2025 05:16:23 AM"
"End Day",2650162,Customer,0,"-- --","-- --","-- --","-- --",,No,,,2025-12-16,17:16:56,238995,"Amol Kherde_Amravati",,"Sales Manager",238961,"Akshay Yeware _Vidarbha",,,"Day Ended","Day Ended",,,27.810808,70.3360349,,NA,"17 Dec 2025 05:16:23 AM"
"End Day",2650070,Customer,0,"-- --","-- --","-- --","-- --",,No,,,2025-12-16,19:36:17,241117,"Gonik Sarkar_Barpeta Road ",B45,"Territory Manager",241115,"SANDIP CHOWDHURY_Guwahati",,,"Day Ended","Day Ended",,,,,,NA,"17 Dec 2025 05:16:22 AM"
"End Day",2650021,Customer,0,"-- --","-- --","-- --","-- --",,No,,,2025-12-16,16:42:55,238147,"Shelendra kumar_MUKTSAR",A88,"Territory Manager",239596,"Vacant TL_Punjab",,,"Day Ended","Day Ended",,,,,,NA,"17 Dec 2025 05:16:22 AM"
"End Day",2649957,Customer,0,"-- --","-- --","-- --","-- --",,No,,,2025-12-16,16:31:12,238157,"Indravesh (HR & HP )",8103951,"Sales Manager",238582,"Vacant RMM ",,,"Day Ended","Day Ended",,,29.7221028,75.865589,,NA,"17 Dec 2025 05:16:22 AM"
"End Day",2649855,Customer,0,"-- --","-- --","-- --","-- --",,No,,,2025-12-16,16:13:34,238162,"Tej Pratap Singh _Karnal",B25,"Territory Manager",238247,"Vacant TL-Krishan Kumar Pathak",,,"Day Ended","Day Ended",,,29.1925712,76.7507563,,NA,"17 Dec 2025 05:16:21 AM"
"End Day",2649834,Customer,0,"-- --","-- --","-- --","-- --",,No,,,2025-12-16,22:09:35,275351,"Gourav Sharma",3843257,"Sales Rep",238694,"Saif _ABOHAR",,,"Day Ended","Day Ended",,,30.1517241,74.2132832,,NA,"17 Dec 2025 05:16:21 AM"
"End Day",2649804,Customer,0,"-- --","-- --","-- --","-- --",,No,,,2025-12-16,19:00:31,238118,"Rohit Kharwar _ALIGARH",A56,"Territory Manager",238113,"vacant-TL-Western UP",,,"Day Ended","Day Ended",,,27.7923863,78.2856025,,NA,"17 Dec 2025 05:16:21 AM"
"End Day",2649701,Customer,0,"-- --","-- --","-- --","-- --",,No,,,2025-12-16,15:34:14,282244,"Kapil poonia",,"Sales Rep",238171,"ANIL KUMAR _Fatehabad",,,"Day Ended","Day Ended",,,29.5122595,75.4478402,,NA,"17 Dec 2025 05:16:20 AM"
"End Day",2649511,Customer,0,"-- --","-- --","-- --","-- --",,No,,,2025-12-16,18:38:50,241097,"Krishna Kumar_Muzaffarpur",D26,"Territory Manager",241093,"Amit Kumar_Patna",,,"Day Ended","Day Ended",,,,,,NA,"17 Dec 2025 05:16:19 AM"
"End Day",2649472,Customer,0,"-- --","-- --","-- --","-- --",,No,,,2025-12-16,15:22:47,239800,"MUTHUMANI K-TRICHY",8105438,"Sales Manager",270521,"Vacant AMM_SWR1 (TN, KL)",,,"Day Ended","Day Ended",,,10.0133588,77.4795227,,NA,"17 Dec 2025 05:16:19 AM"
"End Day",2649458,Customer,0,"-- --","-- --","-- --","-- --",,No,,,2025-12-16,20:26:12,263865,"DHARAJIYA ASHVIN BHAI SEGHA BHAI",3753510,"Sales Rep",239264,"Deepak Chaturvedi_Bhavnagar",,,"Day Ended","Day Ended",,,22.3698789,71.6654214,,NA,"17 Dec 2025 05:16:19 AM"
"End Day",2649377,Customer,0,"-- --","-- --","-- --","-- --",,No,,,2025-12-16,15:08:10,281781,"Godugu Srinivasulu",,"Sales Rep",240514," BINGINIPALLI SADIK_Markapuram",,,"Day Ended","Day Ended",,,,,,NA,"17 Dec 2025 05:16:18 AM"
"End Day",2649253,Customer,0,"-- --","-- --","-- --","-- --",,No,,,2025-12-16,19:16:20,241199,"GAUTAM  CHAUDHURI_ISLAMPUR",D15,"Territory Manager",241109,"Mohit Kumar Saha_Corporate Tea",,,"Day Ended","Day Ended",,,,,,NA,"17 Dec 2025 05:16:18 AM"
"End Day",2649096,Customer,0,"-- --","-- --","-- --","-- --",,No,,,2025-12-16,20:11:38,238127,"Rohit Gaur_Agra",A55,"Territory Manager",238113,"vacant-TL-Western UP",,,"Day Ended","Day Ended",,,26.871992,78.9142095,,NA,"17 Dec 2025 05:16:17 AM"
"End Day",2648864,Customer,0,"-- --","-- --","-- --","-- --",,No,,,2025-12-16,15:37:45,238108,"Dheeraj  singh_Hanumangarh",B24,"Territory Manager",238098,"Vacant-TL-North Rajasthan",,,"Day Ended","Day Ended",,,28.7899488,73.9825337,,NA,"17 Dec 2025 05:16:15 AM"
"End Day",2648633,Customer,0,"-- --","-- --","-- --","-- --",,No,,,2025-12-16,15:30:59,242416,"BIDHU KALYANKAR_BHUBANESHWAR",702430,"Sales Manager",241248,"Suman Dutta",,,"Day Ended","Day Ended",,,20.2200831,85.8484134,,NA,"17 Dec 2025 05:16:14 AM"
"End Day",2648220,Customer,0,"-- --","-- --","-- --","-- --",,No,,,2025-12-16,13:54:35,239812,"Vinu Kumar S _Pallakad",B05,"Territory Manager",239800,"MUTHUMANI K-TRICHY",,,"Day Ended","Day Ended",,,10.7187011,76.5991327,,NA,"17 Dec 2025 05:16:11 AM"
"End Day",2647596,Customer,0,"-- --","-- --","-- --","-- --",,No,,,2025-12-16,13:27:43,277574,"Resham singh",3849845,"Sales Rep",238829,"Ankit _Bathinda",,,"Day Ended","Day Ended",,,30.5646044,74.7374071,,NA,"17 Dec 2025 05:16:08 AM"
"End Day",2647482,Customer,0,"-- --","-- --","-- --","-- --",,No,,,2025-12-16,13:23:59,242412,"kamal hassan_DHAMTARI",D75,"Territory Manager",271703,"Dharmendra Malviya",,,"Day Ended","Day Ended",,,20.8302515,81.7198925,,NA,"17 Dec 2025 05:16:07 AM"
"End Day",2646926,Customer,0,"-- --","-- --","-- --","-- --",,No,,,2025-12-16,20:11:09,252476,"ARIVAZHAGAN CHANDRASEKAR_Thanjavur",3511372,"Sales Rep",239802,"BALAKUMARAN _THANJAVUR",,,"Day Ended","Day Ended",,,10.7000183,79.399985,,NA,"17 Dec 2025 05:16:04 AM"
"End Day",2646860,Customer,0,"-- --","-- --","-- --","-- --",,No,,,2025-12-16,17:49:02,278809,"ALLAMASETTI SOMASEKHAR",3903361,"Sales Rep",240487,"Lakshman Nallapati_TADEPALLIGUDEM",,,"Day Ended","Day Ended",,,16.823571,81.5177271,,NA,"17 Dec 2025 05:16:03 AM"
"End Day",2646246,Customer,0,"-- --","-- --","-- --","-- --",,No,,,2025-12-16,12:49:50,240518,Bhanuprakash_Adoni,C08,"Territory Manager",240516,"Levidi Manikya Reddy_Kurnool",,,"Day Ended","Day Ended",,,,,,NA,"17 Dec 2025 05:16:00 AM"
"End Day",2646223,Customer,0,"-- --","-- --","-- --","-- --",,No,,,2025-12-16,14:59:28,238159,Mohit_TL,,"Sales Manager",241604,"Sandeep Kasnia_AMM_HR & HP",,,"Day Ended","Day Ended",,,29.6788517,75.5715867,,NA,"17 Dec 2025 05:16:00 AM"
"End Day",2646176,Customer,0,"-- --","-- --","-- --","-- --",,No,,,2025-12-16,12:43:51,239268,"Karan Hadvani_Junagdh",C60,"Territory Manager",239259,"Chetanbhai Prajapati_Gujarat",,,"Day Ended","Day Ended",,,21.302276,70.2465531,,NA,"17 Dec 2025 05:15:59 AM"
"End Day",2646057,Customer,0,"-- --","-- --","-- --","-- --",,No,,,2025-12-16,19:51:18,259961,"Md. Phool Babu",3674861,"Sales Rep",241096,"Vacant D16_Samastipur",,,"Day Ended","Day Ended",,,,,,NA,"17 Dec 2025 05:15:59 AM"
"End Day",2646027,Customer,0,"-- --","-- --","-- --","-- --",,No,,,2025-12-16,17:31:36,263668,"Amit Gupta",3752279,"Sales Rep",242411,"Lokesh Bhairam_DURG",,,"Day Ended","Day Ended",,,21.1741808,81.0528021,,NA,"17 Dec 2025 05:15:59 AM"
"End Day",2645955,Customer,0,"-- --","-- --","-- --","-- --",,No,,,2025-12-16,08:11:59,239779,"KEERTHIKESWARAN J",3185485,"Sales Rep",239765,"Sakthivel B _Kancheepuram",,,"Day Ended","Day Ended",,,12.498485,80.0969583,,NA,"17 Dec 2025 05:15:58 AM"
"End Day",2645748,Customer,0,"-- --","-- --","-- --","-- --",,No,,,2025-12-16,12:28:08,241135,"Md Kaif Ahamed",3145497,"Sales Rep",245026,"Sabuj Maiti_Barasat",,,"Day Ended","Day Ended",,,22.5165836,88.6133411,,NA,"17 Dec 2025 05:15:57 AM"
"End Day",2645710,Customer,0,"-- --","-- --","-- --","-- --",,No,,,2025-12-16,17:54:19,271120,"Sudarshan Chauhan",3791932,"Sales Rep",238141,"kapil Tyagi_Amritsar",,,"Day Ended","Day Ended",,,32.0107804,75.1483191,,NA,"17 Dec 2025 05:15:57 AM"
"End Day",2645619,Customer,0,"-- --","-- --","-- --","-- --",,No,,,2025-12-16,17:27:20,239260,"Ajit Shipte_gandhinagar",B21,"Territory Manager",239425,"Nhanu Jadhav_ahmedabad",,,"Day Ended","Day Ended",,,23.1716331,72.8192735,,NA,"17 Dec 2025 05:15:56 AM"
"End Day",2645601,Customer,0,"-- --","-- --","-- --","-- --",,No,,,2025-12-16,12:06:31,240321,"Vinod Sankari_Shahapur",D9,"Territory Manager",240319,"Vishwaradhya Biradar-HUBLI",,,"Day Ended","Day Ended",,,16.704335,76.8437033,,NA,"17 Dec 2025 05:15:56 AM"
"End Day",2645553,Customer,0,"-- --","-- --","-- --","-- --",,No,,,2025-12-16,14:54:10,272352,"Vishal Rajendra Patil",3810887,"Sales Rep",263845,"Ananta Mankar_dhule",,,"Day Ended","Day Ended",,,,,,NA,"17 Dec 2025 05:15:56 AM"
"End Day",2645549,Customer,0,"-- --","-- --","-- --","-- --",,No,,,2025-12-16,16:48:38,242405,"Soumya Sawaran_SAGAR",D71,"Territory Manager",242325,"Gaurav Kandpal_BHOPAL",,,"Day Ended","Day Ended",,,24.0391977,78.3344368,,NA,"17 Dec 2025 05:15:56 AM"
"End Day",2645524,Customer,0,"-- --","-- --","-- --","-- --",,No,,,2025-12-16,11:55:38,246702,"ajay jadhav_Aurangabad",D08,"Territory Manager",263562,"Bikash Raymohpatra",,,"Day Ended","Day Ended",,,20.1664467,75.72446,,NA,"17 Dec 2025 05:15:56 AM"
"End Day",2645368,Customer,0,"-- --","-- --","-- --","-- --",,No,,,2025-12-16,16:11:27,242396,"CHANDRAPAL SHEKHAWAT_INDORE",D69,"Territory Manager",242323,"SHAILENDRA SOLANKHI_INDORE",,,"Day Ended","Day Ended",,,22.6405767,75.8760259,,NA,"17 Dec 2025 05:15:55 AM"
"End Day",2645328,Customer,0,"-- --","-- --","-- --","-- --",,No,,,2025-12-16,12:12:00,245793,"Babu Lal Mali_khandar",3370111,"Sales Rep",238104,"shashikant maury_Jaipur",,,"Day Ended","Day Ended",,,25.9739684,76.7241589,,NA,"17 Dec 2025 05:15:54 AM"
"End Day",2645260,Customer,0,"-- --","-- --","-- --","-- --",,No,,,2025-12-16,12:04:48,242328,"ADITYA KUMAR_RAIPUR",G106811,"Sales Manager",242322,"Nazhat kittur_CENTRAL",,,"Day Ended","Day Ended",,,21.1747816,81.6956627,,NA,"17 Dec 2025 05:15:54 AM"
"End Day",2645246,Customer,0,"-- --","-- --","-- --","-- --",,No,,,2025-12-16,12:04:15,274158,"Shrikant chindhu halade",3805592,"Sales Rep",239249,prashant_Sangamner,,,"Day Ended","Day Ended",,,19.8963933,74.36502,,NA,"17 Dec 2025 05:15:54 AM"
"End Day",2645218,Customer,0,"-- --","-- --","-- --","-- --",,No,,,2025-12-16,12:02:59,252719,"KUSHAL DEY_Birnagar",3510478,"Sales Rep",241099,"Sribash Kumar Mallick_krishnanagar",,,"Day Ended","Day Ended",,,23.3600817,88.6544617,,NA,"17 Dec 2025 05:15:54 AM"
"End Day",2645204,Customer,0,"-- --","-- --","-- --","-- --",,No,,,2025-12-16,12:04:33,238138,"ATUL KUMAR PANDEY_KHANNA",A61,"Territory Manager",238136,"Sandeep Kumar_BHATINDA",,,"Day Ended","Day Ended",,,30.7992633,76.1643319,,NA,"17 Dec 2025 05:15:53 AM"
"End Day",2645112,Customer,0,"-- --","-- --","-- --","-- --",,No,,,2025-12-16,19:11:17,239013,"Rahul Dorle_Pusad",H3,"Territory Manager",239170,"Nilesh kankewar_Marathwada",,,"Day Ended","Day Ended",,,19.9902535,77.4743371,,NA,"17 Dec 2025 05:15:53 AM"
"End Day",2645090,Customer,0,"-- --","-- --","-- --","-- --",,No,,,2025-12-16,16:33:49,239267,"Ashishkumar B. Bhanderi _Jamnagar",B06,"Territory Manager",239259,"Chetanbhai Prajapati_Gujarat",,,"Day Ended","Day Ended",,,,,,NA,"17 Dec 2025 05:15:53 AM"
"End Day",2645022,Customer,0,"-- --","-- --","-- --","-- --",,No,,,2025-12-16,18:18:50,268383,"Chakradhara Sahu",3762048,"Sales Rep",242409,"DEBADATTA SAMAL_BARGARH",,,"Day Ended","Day Ended",,,20.1634483,83.3485817,,NA,"17 Dec 2025 05:15:52 AM"
"End Day",2644932,Customer,0,"-- --","-- --","-- --","-- --",,No,,,2025-12-16,21:42:51,249634,"GURJEET SINGH",3511827,"Sales Rep",238694,"Saif _ABOHAR",,,"Day Ended","Day Ended",,,30.1446003,74.2110788,,NA,"17 Dec 2025 05:15:52 AM"
"End Day",2644852,Customer,0,"-- --","-- --","-- --","-- --",,No,,,2025-12-16,11:43:27,253210,"Anupama  Pandey",3484949,"Sales Rep",242400,"Dinesh singh ginnare_KHARGONE",,,"Day Ended","Day Ended",,,21.8264751,75.624325,,NA,"17 Dec 2025 05:15:51 AM"
"End Day",2644846,Customer,0,"-- --","-- --","-- --","-- --",,No,,,2025-12-16,15:44:44,238122,"Ankit Singh _MORADABAD",A65,"Territory Manager",238113,"vacant-TL-Western UP",,,"Day Ended","Day Ended",,,28.8432698,78.7554903,,NA,"17 Dec 2025 05:15:51 AM"
"End Day",2644780,Customer,0,"-- --","-- --","-- --","-- --",,No,,,2025-12-16,21:00:04,239441,"Kiran Sansare_Satara",C81,"Territory Manager",239426,"Vijay Babar_TL Sangli",,,"Day Ended","Day Ended",,,17.3613591,74.0377333,,NA,"17 Dec 2025 05:15:50 AM"
"End Day",2644765,Customer,0,"-- --","-- --","-- --","-- --",,No,,,2025-12-16,21:41:11,263871,"BALVINDER SINGH",3750499,"Sales Rep",238111,"Davinder Singh_Sri Ganganagar",,,"Day Ended","Day Ended",,,29.9314334,73.9238174,,NA,"17 Dec 2025 05:15:50 AM"
"End Day",2644678,Customer,0,"-- --","-- --","-- --","-- --",,No,,,2025-12-16,18:43:24,238149,"Vinod Kumar Chaubey_PATIALA",A92,"Territory Manager",238136,"Sandeep Kumar_BHATINDA",,,"Day Ended","Day Ended",,,,,,NA,"17 Dec 2025 05:15:49 AM"
"End Day",2644671,Customer,0,"-- --","-- --","-- --","-- --",,No,,,2025-12-16,11:37:19,276077,"Yuvraj Mulchand Chavan",3699328,"Sales Rep",239392,"sadanand kamale_JALGAON",,,"Day Ended","Day Ended",,,20.6463983,75.59152,,NA,"17 Dec 2025 05:15:49 AM"
"End Day",2644657,Customer,0,"-- --","-- --","-- --","-- --",,No,,,2025-12-16,14:25:44,274516,GAGANDEEP,3826352,"Sales Rep",238694,"Saif _ABOHAR",,,"Day Ended","Day Ended",,,,,,NA,"17 Dec 2025 05:15:49 AM"
"End Day",2644626,Customer,0,"-- --","-- --","-- --","-- --",,No,,,2025-12-16,11:32:09,237113,"Rakshith H S",3172163,"Sales Rep",231721,"Mahesh R_KOLAR",,,"Day Ended","Day Ended",,,13.3340846,78.2926816,,NA,"17 Dec 2025 05:15:49 AM"
"End Day",2644620,Customer,0,"-- --","-- --","-- --","-- --",,No,,,2025-12-16,12:17:29,242435,"Lokesh Mahadule",2988018,"Sales Rep",242407,"Naveen Bopache_CHHINDWARA",,,"Day Ended","Day Ended",,,21.7680439,77.8925485,,NA,"17 Dec 2025 05:15:49 AM"
"End Day",2644619,Customer,0,"-- --","-- --","-- --","-- --",,No,,,2025-12-16,16:36:10,240512,"Atla Siva Krishnareddy_Macherla",C09,"Territory Manager",240508,"Murali G _guntur",,,"Day Ended","Day Ended",,,16.6134707,79.6355575,,NA,"17 Dec 2025 05:15:49 AM"
"End Day",2644519,Customer,0,"-- --","-- --","-- --","-- --",,No,,,2025-12-16,15:56:09,280921,"RAHUL GADHAWAL",3934887,"Sales Rep",238170,"Kuldeep Godara  _Hissar",,,"Day Ended","Day Ended",,,28.9380505,76.1629118,,NA,"17 Dec 2025 05:15:48 AM"
"End Day",2644458,Customer,0,"-- --","-- --","-- --","-- --",,No,,,2025-12-16,13:29:58,239263,"mahek amreliya_Rajkot",B22,"Territory Manager",239259,"Chetanbhai Prajapati_Gujarat",,,"Day Ended","Day Ended",,,21.9846875,71.1760355,,NA,"17 Dec 2025 05:15:48 AM"
"End Day",2644455,Customer,0,"-- --","-- --","-- --","-- --",,No,,,2025-12-16,15:34:39,269558,"SALEEM KHAN",3777089,"Sales Rep",238104,"shashikant maury_Jaipur",,,"Day Ended","Day Ended",,,27.9307367,76.8451983,,NA,"17 Dec 2025 05:15:48 AM"
"End Day",2644443,Customer,0,"-- --","-- --","-- --","-- --",,No,,,2025-12-16,11:25:43,240573,"KORE RAMU",2574943,"Sales Rep",240479,"TALARI SUBHADRA_Warangal",,,"Day Ended","Day Ended",,,17.8777359,79.9089616,,NA,"17 Dec 2025 05:15:48 AM"
"End Day",2644351,Customer,0,"-- --","-- --","-- --","-- --",,No,,,2025-12-16,11:02:02,238114,"Digvijay Singh-East UP",,"Sales Manager",239601,"Vasundhara_AMM UP ",,,"Day Ended","Day Ended",,,26.776114,80.900221,,NA,"17 Dec 2025 05:15:47 AM"
"End Day",2644305,Customer,0,"-- --","-- --","-- --","-- --",,No,,,2025-12-16,18:34:25,239261,"Manoj Singh_vadodara",B20,"Territory Manager",239425,"Nhanu Jadhav_ahmedabad",,,"Day Ended","Day Ended",,,22.0236133,73.1180783,,NA,"17 Dec 2025 05:15:47 AM"
"End Day",2644273,Customer,0,"-- --","-- --","-- --","-- --",,No,,,2025-12-16,13:27:39,239458,"Pruthviraj Chandrakant Mane",2617835,"Sales Rep",239442,"Mangesh Bhosale_Pandharpur",,,"Day Ended","Day Ended",,,17.4277563,75.0720802,,NA,"17 Dec 2025 05:15:47 AM"
"End Day",2644253,Customer,0,"-- --","-- --","-- --","-- --",,No,,,2025-12-16,14:48:39,242397,"RAJKUMAR MEENA_UJJAIN",D60,"Territory Manager",242323,"SHAILENDRA SOLANKHI_INDORE",,,"Day Ended","Day Ended",,,23.7102648000,77.0893711000,,NA,"17 Dec 2025 05:15:46 AM"
"End Day",2644217,Customer,0,"-- --","-- --","-- --","-- --",,No,,,2025-12-16,11:15:23,239597,"Prashant Singh-North2",,"Sales Manager",246632,"Brajesh Kumar Sharma_RFH north",,,"Day Ended","Day Ended",,,27.2993259,81.1097427,,NA,"17 Dec 2025 05:15:46 AM"
"End Day",2644213,Customer,0,"-- --","-- --","-- --","-- --",,No,,,2025-12-16,19:42:16,241099,"Sribash Kumar Mallick_krishnanagar",D05,"Territory Manager",241098,"Sumit Sarkar_South Bengal",,,"Day Ended","Day Ended",,,23.0552706,88.469115,,NA,"17 Dec 2025 05:15:46 AM"
"End Day",2644129,Customer,0,"-- --","-- --","-- --","-- --",,No,,,2025-12-16,10:16:01,241103,"Pritam Dey_Hooghly",D03,"Territory Manager",241098,"Sumit Sarkar_South Bengal",,,"Day Ended","Day Ended",,,22.8815717,87.7557619,,NA,"17 Dec 2025 05:15:46 AM"
"End Day",2644096,Customer,0,"-- --","-- --","-- --","-- --",,No,,,2025-12-16,17:45:03,260718,"Mohan Maragale",3695893,"Sales Rep",240322,"Sachin Tammaraya_BELGAUM",,,"Day Ended","Day Ended",,,,,,NA,"17 Dec 2025 05:15:45 AM"
"End Day",2644095,Customer,0,"-- --","-- --","-- --","-- --",,No,,,2025-12-16,11:04:19,271739,"K.ranga reddy",3807627,"Sales Rep",240522,"Thanrunkumar reddy_kurnool",,,"Day Ended","Day Ended",,,15.3928526,77.5050502,,NA,"17 Dec 2025 05:15:45 AM"
"End Day",2644058,Customer,0,"-- --","-- --","-- --","-- --",,No,,,2025-12-16,23:11:58,281187,"Vivek Dhakad",3944878,"Sales Rep",242404,"Pankaj Singh Bisht_SHIVPURI",,,"Day Ended","Day Ended",,,24.5774183,77.3908817,,NA,"17 Dec 2025 05:15:45 AM"
"End Day",2644045,Customer,0,"-- --","-- --","-- --","-- --",,No,,,2025-12-16,11:02:03,241197,"Masud Rijwan_BERHAMPORE",D18,"Territory Manager",241098,"Sumit Sarkar_South Bengal",,,"Day Ended","Day Ended",,,24.1341603,88.3532835,,NA,"17 Dec 2025 05:15:45 AM"
"End Day",2644031,Customer,0,"-- --","-- --","-- --","-- --",,No,,,2025-12-16,17:29:14,238116,"Shailendra Pratap Singh_BAREILLY",F8,"Territory Manager",238113,"vacant-TL-Western UP",,,"Day Ended","Day Ended",,,28.2044334,79.0585517,,NA,"17 Dec 2025 05:15:45 AM"
"End Day",2643960,Customer,0,"-- --","-- --","-- --","-- --",,No,,,2025-12-16,19:52:20,238128,"Devendra Pundir_Muzaffarnagar",A89,"Territory Manager",238113,"vacant-TL-Western UP",,,"Day Ended","Day Ended",,,29.6035774,77.5340147,,NA,"17 Dec 2025 05:15:44 AM"
"End Day",2643907,Customer,0,"-- --","-- --","-- --","-- --",,No,,,2025-12-16,14:56:23,270561,Yuvraj Vishwas Jadhav, 3768520,"Sales Rep",231724,"Shubham Shinde_NIPHAD",,,"Day Ended","Day Ended",,,20.2807157,74.1029224,,NA,"17 Dec 2025 05:15:44 AM"
"End Day",2643838,Customer,0,"-- --","-- --","-- --","-- --",,No,,,2025-12-16,10:52:06,243869,"Muniyapillai A",3299238,"Sales Rep",239763,"JAYAKUMAR C_VILLUPURAM",,,"Day Ended","Day Ended",,,11.0385203,78.7721492,,NA,"17 Dec 2025 05:15:44 AM"
"End Day",2643784,Customer,0,"-- --","-- --","-- --","-- --",,No,,,2025-12-16,10:13:38,250517,"Akash Pandurang Kaldate",3437569,"Sales Rep",239455,"Sachin Shinde_Latur",,,"Day Ended","Day Ended",,,18.4946967,76.5249467,,NA,"17 Dec 2025 05:15:43 AM"
"End Day",2643782,Customer,0,"-- --","-- --","-- --","-- --",,No,,,2025-12-16,15:57:53,278023,"Bahgyashri Rangnath Ugale",3873526,"Sales Rep",231725,"Dhananjay Ushir_PIMPALGAON BASVANT",,,"Day Ended","Day Ended",,,20.2259292,73.8392453,,NA,"17 Dec 2025 05:15:43 AM"
"End Day",2643749,Customer,0,"-- --","-- --","-- --","-- --",,No,,,2025-12-16,16:24:51,244058,"Arun kumar",3290603,"Sales Rep",238130,"Mohit Kumar Tomar_Hapur",,,"Day Ended","Day Ended",,,28.7966578,77.8351418,,NA,"17 Dec 2025 05:15:43 AM"
"End Day",2643746,Customer,0,"-- --","-- --","-- --","-- --",,No,,,2025-12-16,11:09:12,239275,"Rana Dixitkumar Gopalkrushna_CA_Vadodar",3455509,"Sales Rep",239261,"Manoj Singh_vadodara",,,"Day Ended","Day Ended",,,22.1698528,73.578234,,NA,"17 Dec 2025 05:15:43 AM"
"End Day",2643735,Customer,0,"-- --","-- --","-- --","-- --",,No,,,2025-12-16,17:21:50,243964,"Sailendra Sharma",3325118,"Sales Rep",242406,"Sonu Dhakad_JABALPUR",,,"Day Ended","Day Ended",,,22.87849,78.9688617,,NA,"17 Dec 2025 05:15:43 AM"
"End Day",2643725,Customer,0,"-- --","-- --","-- --","-- --",,No,,,2025-12-16,10:47:12,238579,"prajkta patil "," G108720 ","Sales Manager",231717,Vacant-WRG2,,,"Day Ended","Day Ended",,,16.9461841,75.2457026,,NA,"17 Dec 2025 05:15:43 AM"
"End Day",2643696,Customer,0,"-- --","-- --","-- --","-- --",,No,,,2025-12-16,17:19:17,255959,"RAJKUMAR PAUL",3625444,"Sales Rep",241198,"MD HAFIJUR RAHAMAN_MALDA",,,"Day Ended","Day Ended",,,25.2267758,88.1265107,,NA,"17 Dec 2025 05:15:43 AM"
"End Day",2643655,Customer,0,"-- --","-- --","-- --","-- --",,No,,,2025-12-16,15:27:14,238111,"Davinder Singh_Sri Ganganagar",A78,"Territory Manager",238098,"Vacant-TL-North Rajasthan",,,"Day Ended","Day Ended",,,29.5737806,74.337535,,NA,"17 Dec 2025 05:15:43 AM"
"End Day",2643585,Customer,0,"-- --","-- --","-- --","-- --",,No,,,2025-12-16,13:17:17,241093,"Amit Kumar_Patna",,"Sales Manager",241196,"SAPTARSI CHAKRABORTY_AMM",,,"Day Ended","Day Ended",,,,,,NA,"17 Dec 2025 05:15:42 AM"
"End Day",2643572,Customer,0,"-- --","-- --","-- --","-- --",,No,,,2025-12-16,15:51:07,263313,"SURESH BIRADAR_Davengere",,"Sales Manager",238580,"Manjunatha V",,,"Day Ended","Day Ended",,,13.627288,76.2888549,,NA,"17 Dec 2025 05:15:42 AM"
"End Day",2643484,Customer,0,"-- --","-- --","-- --","-- --",,No,,,2025-12-16,20:38:42,239443,"Satyajit Todkar_Kolhapur",A23,"Territory Manager",239426,"Vijay Babar_TL Sangli",,,"Day Ended","Day Ended",,,16.6914378000,74.1798517000,,NA,"17 Dec 2025 05:15:42 AM"
"End Day",2643453,Customer,0,"-- --","-- --","-- --","-- --",,No,,,2025-12-16,17:36:05,239250,"Bhushan Gaikwad_Ahmednagar",A00,"Territory Manager",239230,"Purushottam Ghatode-Pune",,,"Day Ended","Day Ended",,,,,,NA,"17 Dec 2025 05:15:41 AM"
"End Day",2643438,Customer,0,"-- --","-- --","-- --","-- --",,No,,,2025-12-16,13:32:01,277681,Shruti Santosh Jadhav,3875226,"Sales Rep",238107,"Jagat pal_Sumerpur",,,"Day Ended","Day Ended",,,24.8590839,72.3385893,,NA,"17 Dec 2025 05:15:41 AM"
"End Day",2643417,Customer,0,"-- --","-- --","-- --","-- --",,No,,,2025-12-16,10:19:16,241114,"Arnab Halder_Kolkata",K3,"Territory Manager",241109,"Mohit Kumar Saha_Corporate Tea",,,"Day Ended","Day Ended",,,22.5251201,88.3978701,,NA,"17 Dec 2025 05:15:41 AM"
"End Day",2643409,Customer,0,"-- --","-- --","-- --","-- --",,No,,,2025-12-16,16:15:08,280886,"Sarita Patel",3919244,"Sales Rep",239261,"Manoj Singh_vadodara",,,"Day Ended","Day Ended",,,,,,NA,"17 Dec 2025 05:15:41 AM"
"End Day",2643392,Customer,0,"-- --","-- --","-- --","-- --",,No,,,2025-12-16,12:28:51,232916,"Gaurav Santosh Kond",3086142,"Sales Rep",231726,"Yogesh Bharti_Satana",,,"Day Ended","Day Ended",,,20.4805178,74.0246551,,NA,"17 Dec 2025 05:15:41 AM"
"End Day",2643385,Customer,0,"-- --","-- --","-- --","-- --",,No,,,2025-12-16,10:33:05,276805,"JIBAN KRISNO SAHA ",3860958,"Sales Rep",241111,"Vacant SO_Jalpaiguri",,,"Day Ended","Day Ended",,,26.1316976,89.4587915,,NA,"17 Dec 2025 05:15:41 AM"
"End Day",2643368,Customer,0,"-- --","-- --","-- --","-- --",,No,,,2025-12-16,13:49:34,276055,"Duyash Vilasrao Dudhe",2959938,"Sales Rep",238996,"Vacant PO_Karanja-Arvi",,,"Day Ended","Day Ended",,,20.8000705,78.2132566,,NA,"17 Dec 2025 05:15:41 AM"
"End Day",2643328,Customer,0,"-- --","-- --","-- --","-- --",,No,,,2025-12-16,23:17:02,276076,"Akshay Hage",2629931,"Sales Rep",239009,"Vacant PO_Paratwada",,,"Day Ended","Day Ended",,,21.1649093,77.312878,,NA,"17 Dec 2025 05:15:41 AM"
"End Day",2643319,Customer,0,"-- --","-- --","-- --","-- --",,No,,,2025-12-16,18:36:02,241110,"Rajib Dey_Dibrugarh",D29,"Territory Manager",241109,"Mohit Kumar Saha_Corporate Tea",,,"Day Ended","Day Ended",,,,,,NA,"17 Dec 2025 05:15:41 AM"
"End Day",2643273,Customer,0,"-- --","-- --","-- --","-- --",,No,,,2025-12-16,10:28:55,263749,"Aman kumar",3745526,"Sales Rep",238116,"Shailendra Pratap Singh_BAREILLY",,,"Day Ended","Day Ended",,,27.98252,79.058565,,NA,"17 Dec 2025 05:15:40 AM"
"End Day",2643263,Customer,0,"-- --","-- --","-- --","-- --",,No,,,2025-12-16,10:10:49,238198,"Manoj Kumar",2619137,"Sales Rep",238122,"Ankit Singh _MORADABAD",,,"Day Ended","Day Ended",,,28.4202854,78.3496989,,NA,"17 Dec 2025 05:15:40 AM"
"End Day",2643239,Customer,0,"-- --","-- --","-- --","-- --",,No,,,2025-12-16,11:02:16,241115,"SANDIP CHOWDHURY_Guwahati",708831,"Sales Manager",241196,"SAPTARSI CHAKRABORTY_AMM",,,"Day Ended","Day Ended",,,26.3052467,89.6180067,,NA,"17 Dec 2025 05:15:40 AM"
"End Day",2643179,Customer,0,"-- --","-- --","-- --","-- --",,No,,,2025-12-16,21:33:55,278825,"PRITHIV RAJ S",3899506,"Sales Rep",239805,"MUTHU IRULAPPAN_Dindigul",,,"Day Ended","Day Ended",,,10.3656203,77.9667673,,NA,"17 Dec 2025 05:15:40 AM"
"End Day",2643040,Customer,0,"-- --","-- --","-- --","-- --",,No,,,2025-12-16,14:29:35,253104,"Tejas Ramesh Birajdar",3546804,"Sales Rep",239454,"Samdhan devkatte _Osmanabad",,,"Day Ended","Day Ended",,,17.582835,76.0881067,,NA,"17 Dec 2025 05:15:39 AM"
"End Day",2643000,Customer,0,"-- --","-- --","-- --","-- --",,No,,,2025-12-16,10:20:13,241166,"Arun Kumar Ningombam",2617763,"Sales Rep",241119,"Vacant Manipur_Imphal",,,"Day Ended","Day Ended",,,24.7800263,93.9358635,,NA,"17 Dec 2025 05:15:39 AM"
"End Day",2642990,Customer,0,"-- --","-- --","-- --","-- --",,No,,,2025-12-16,21:17:11,269492,"NIVRUTTI BHIKULAL BODKE",3768615,"Sales Rep",232909,"Sachin Fakirrao Labhade _Nashik",,,"Day Ended","Day Ended",,,,,,NA,"17 Dec 2025 05:15:39 AM"
"End Day",2642975,Customer,0,"-- --","-- --","-- --","-- --",,No,,,2025-12-16,19:03:13,231716,"HariHara MurthyN-BANGALOR",G108454,"Sales Manager",250341,vacant_amm,,,"Day Ended","Day Ended",,,13.1312004,77.7739362,,NA,"17 Dec 2025 05:15:39 AM"
"End Day",2642928,Customer,0,"-- --","-- --","-- --","-- --",,No,,,2025-12-16,21:42:26,276060,"Swapnil Mahesh Jangam",2617797,"Sales Rep",242911,"Akshay Ingole_Chandrapur",,,"Day Ended","Day Ended",,,18.8496038,79.9623396,,NA,"17 Dec 2025 05:15:38 AM"
"End Day",2642926,Customer,0,"-- --","-- --","-- --","-- --",,No,,,2025-12-16,19:39:57,243872,"Basymon M G",3308123,"Sales Rep",239812,"Vinu Kumar S _Pallakad",,,"Day Ended","Day Ended",,,11.6600038,76.1653938,,NA,"17 Dec 2025 05:15:38 AM"
"End Day",2642861,Customer,0,"-- --","-- --","-- --","-- --",,No,,,2025-12-16,18:37:44,269751,Ramanna,3781104,"Sales Rep",240303,"Kattamuri S V N S S Bhaskar Mani Sekhar_Raichur",,,"Day Ended","Day Ended",,,15.9852906,77.0551871,,NA,"17 Dec 2025 05:15:38 AM"
"End Day",2642854,Customer,0,"-- --","-- --","-- --","-- --",,No,,,2025-12-16,09:58:12,271206,"Ravindra Tanvar",3782872,"Sales Rep",242400,"Dinesh singh ginnare_KHARGONE",,,"Day Ended","Day Ended",,,21.8313049,75.634435,,NA,"17 Dec 2025 05:15:38 AM"
"End Day",2642815,Customer,0,"-- --","-- --","-- --","-- --",,No,,,2025-12-16,11:17:32,263164,"prakhar kumar singh ",,"Sales Rep",242410,"Roshani Bisen_MAHASAMUND",,,"Day Ended","Day Ended",,,,,,NA,"17 Dec 2025 05:15:38 AM"
"End Day",2642777,Customer,0,"-- --","-- --","-- --","-- --",,No,,,2025-12-16,10:48:12,271928,"MENIYA JAYDEEP THAKARSHIBHAI	",3797489,"Sales Rep",239263,"mahek amreliya_Rajkot",,,"Day Ended","Day Ended",,,,,,NA,"17 Dec 2025 05:15:37 AM"
"End Day",2642770,Customer,0,"-- --","-- --","-- --","-- --",,No,,,2025-12-16,10:11:48,278095,"Onkar Sanjay Varpe",3885602,"Sales Rep",239249,prashant_Sangamner,,,"Day Ended","Day Ended",,,18.987226,72.8236166,,NA,"17 Dec 2025 05:15:37 AM"
"End Day",2642767,Customer,0,"-- --","-- --","-- --","-- --",,No,,,2025-12-16,22:27:22,231720,"Amit reddy_CHIKKABALLAPURA",A46,"Territory Manager",231716,"HariHara MurthyN-BANGALOR",,,"Day Ended","Day Ended",,,13.4210625,77.7364957,,NA,"17 Dec 2025 05:15:37 AM"
"End Day",2642696,Customer,0,"-- --","-- --","-- --","-- --",,No,,,2025-12-16,21:32:21,242401,"Manoj Chouhan_KHANDWA",B02,"Territory Manager",242324,"Javed Khan Nimar_KHARGONE",,,"Day Ended","Day Ended",,,21.8439166,76.3472915,,NA,"17 Dec 2025 05:15:37 AM"
"End Day",2642681,Customer,0,"-- --","-- --","-- --","-- --",,No,,,2025-12-16,16:31:10,239442,"Mangesh Bhosale_Pandharpur",A22,"Territory Manager",239426,"Vijay Babar_TL Sangli",,,"Day Ended","Day Ended",,,17.6810167,75.3118637,,NA,"17 Dec 2025 05:15:37 AM"
"End Day",2642657,Customer,0,"-- --","-- --","-- --","-- --",,No,,,2025-12-16,10:30:24,241143,"Santanu Roy",2621392,"Sales Rep",241101,"Susovan Ghosh_West Medinipur",,,"Day Ended","Day Ended",,,22.7404575,87.5718847,,NA,"17 Dec 2025 05:15:37 AM"
"End Day",2642640,Customer,0,"-- --","-- --","-- --","-- --",,No,,,2025-12-16,12:56:28,238141,"kapil Tyagi_Amritsar",A75,"Territory Manager",238136,"Sandeep Kumar_BHATINDA",,,"Day Ended","Day Ended",,,31.6138809,74.9173401,,NA,"17 Dec 2025 05:15:37 AM"
"End Day",2642610,Customer,0,"-- --","-- --","-- --","-- --",,No,,,2025-12-16,15:27:44,262787,"Abhinav likhare",,"Sales Rep",242407,"Naveen Bopache_CHHINDWARA",,,"Day Ended","Day Ended",,,22.0513608,78.0266319,,NA,"17 Dec 2025 05:15:37 AM"
"End Day",2642587,Customer,0,"-- --","-- --","-- --","-- --",,No,,,2025-12-16,10:08:36,239392,"sadanand kamale_JALGAON",A97,"Territory Manager",263562,"Bikash Raymohpatra",,,"Day Ended","Day Ended",,,20.5979238,75.6177967,,NA,"17 Dec 2025 05:15:36 AM"
"End Day",2642583,Customer,0,"-- --","-- --","-- --","-- --",,No,,,2025-12-16,17:58:46,281561,"Loganathan T",,"Sales Rep",239809,"Vacant SO_Krishnagiri",,,"Day Ended","Day Ended",,,12.3122426,78.4868239,,NA,"17 Dec 2025 05:15:36 AM"
"End Day",2642567,Customer,0,"-- --","-- --","-- --","-- --",,No,,,2025-12-16,17:46:36,251859,"Diwakar Sharma_",3441255,"Sales Rep",242406,"Sonu Dhakad_JABALPUR",,,"Day Ended","Day Ended",,,23.1678074,79.6898933,,NA,"17 Dec 2025 05:15:36 AM"
"End Day",2642510,Customer,0,"-- --","-- --","-- --","-- --",,No,,,2025-12-16,23:09:21,268360,"Garidepalli Upendra",3760621,"Sales Rep",240485,K.PRASANTH_KHAMMAM,,,"Day Ended","Day Ended",,,17.1205501,80.4045213,,NA,"17 Dec 2025 05:15:36 AM"
"End Day",2642501,Customer,0,"-- --","-- --","-- --","-- --",,No,,,2025-12-16,16:31:22,259672,Gurumurthyreddy.R,3666606,"Sales Rep",231721,"Mahesh R_KOLAR",,,"Day Ended","Day Ended",,,13.0720137,78.0379422,,NA,"17 Dec 2025 05:15:36 AM"
"End Day",2642472,Customer,0,"-- --","-- --","-- --","-- --",,No,,,2025-12-16,21:49:38,276219,"Tejinder singh",3851351,"Sales Rep",238816,"Pranshu Verma_HOSHIARPUR",,,"Day Ended","Day Ended",,,31.8921758,75.57552,,NA,"17 Dec 2025 05:15:36 AM"
"End Day",2642465,Customer,0,"-- --","-- --","-- --","-- --",,No,,,2025-12-16,16:14:52,240323,"Basavaraj Biradar _GULBERGA",A34,"Territory Manager",240319,"Vishwaradhya Biradar-HUBLI",,,"Day Ended","Day Ended",,,17.008761,76.7733634,,NA,"17 Dec 2025 05:15:36 AM"
"End Day",2642399,Customer,0,"-- --","-- --","-- --","-- --",,No,,,2025-12-16,21:50:58,271508,"TANMAY MAL",3783364,"Sales Rep",241103,"Pritam Dey_Hooghly",,,"Day Ended","Day Ended",,,,,,NA,"17 Dec 2025 05:15:36 AM"
"End Day",2642375,Customer,0,"-- --","-- --","-- --","-- --",,No,,,2025-12-16,19:27:56,240521,"M Chandrasekhar_Madanapalle",C32,"Territory Manager",240516,"Levidi Manikya Reddy_Kurnool",,,"Day Ended","Day Ended",,,13.7267928,78.3575886,,NA,"17 Dec 2025 05:15:35 AM"
"End Day",2642351,Customer,0,"-- --","-- --","-- --","-- --",,No,,,2025-12-16,19:40:26,269959,Pratik Sanjay Shirsath ,3768596,"Sales Rep",231725,"Dhananjay Ushir_PIMPALGAON BASVANT",,,"Day Ended","Day Ended",,,20.2895367,73.978615,,NA,"17 Dec 2025 05:15:35 AM"
"End Day",2642339,Customer,0,"-- --","-- --","-- --","-- --",,No,,,2025-12-16,17:33:41,271529,"Sanu Ali",3800468,"Sales Rep",238120,"shubham Gupta_KICHHA",,,"Day Ended","Day Ended",,,28.9805694,79.1233964,,NA,"17 Dec 2025 05:15:35 AM"
"End Day",2642321,Customer,0,"-- --","-- --","-- --","-- --",,No,,,2025-12-16,22:47:21,238104,"shashikant maury_Jaipur",A73,"Territory Manager",238098,"Vacant-TL-North Rajasthan",,,"Day Ended","Day Ended",,,27.0055682,75.7690574,,NA,"17 Dec 2025 05:15:35 AM"
"End Day",2642297,Customer,0,"-- --","-- --","-- --","-- --",,No,,,2025-12-16,16:39:56,239609,"Salman Hussain _Lakhimpur",A58,"Territory Manager",238114,"Digvijay Singh-East UP",,,"Day Ended","Day Ended",,,27.8507817,80.5397083,,NA,"17 Dec 2025 05:15:35 AM"
"End Day",2642269,Customer,0,"-- --","-- --","-- --","-- --",,No,,,2025-12-16,19:10:11,280599,"Satyam Parashar",,"Sales Rep",242401,"Manoj Chouhan_KHANDWA",,,"Day Ended","Day Ended",,,22.2892273,77.3462044,,NA,"17 Dec 2025 05:15:35 AM"
"End Day",2642261,Customer,0,"-- --","-- --","-- --","-- --",,No,,,2025-12-16,22:24:42,258634," veerappa kivudanavar_Hubli",D5,"Territory Manager",263313,"SURESH BIRADAR_Davengere",,,"Day Ended","Day Ended",,,15.3787811,75.1303309,,NA,"17 Dec 2025 05:15:35 AM"
"End Day",2642238,Customer,0,"-- --","-- --","-- --","-- --",,No,,,2025-12-16,17:20:13,271943,"Jagdeesh Singh Rigwar",3802264,"Sales Rep",242414,"Vinay Kumar Singh_Bilaspur",,,"Day Ended","Day Ended",,,21.5681794,83.2586225,,NA,"17 Dec 2025 05:15:35 AM"
"End Day",2642195,Customer,0,"-- --","-- --","-- --","-- --",,No,,,2025-12-16,12:24:27,254044,"Omkar Sanjay Mali",3576964,"Sales Rep",239443,"Satyajit Todkar_Kolhapur",,,"Day Ended","Day Ended",,,16.7389489,74.6040936,,NA,"17 Dec 2025 05:15:34 AM"
"End Day",2642150,Customer,0,"-- --","-- --","-- --","-- --",,No,,,2025-12-16,20:12:21,263438,"Manish Verma_jhansi",B59,"Territory Manager",238114,"Digvijay Singh-East UP",,,"Day Ended","Day Ended",,,24.586655,78.728485,,NA,"17 Dec 2025 05:15:34 AM"
"End Day",2642141,Customer,0,"-- --","-- --","-- --","-- --",,No,,,2025-12-16,16:54:43,263752,"Ravindra kumar pal ",3744915,"Sales Rep",238121,"Jai Prakash mishra_Faizabad",,,"Day Ended","Day Ended",,,26.4531536,82.126737,,NA,"17 Dec 2025 05:15:34 AM"
"End Day",2642131,Customer,0,"-- --","-- --","-- --","-- --",,No,,,2025-12-16,09:52:52,271317,"TEJPAL SANDIIP KHATKE",3788082,"Sales Rep",239231,"Yogesh Kadam_Narayangaon",,,"Day Ended","Day Ended",,,18.0281315,74.5737873,,NA,"17 Dec 2025 05:15:34 AM"
"End Day",2642062,Customer,0,"-- --","-- --","-- --","-- --",,No,,,2025-12-16,09:50:51,276054,"Harish Shivshankar Charde",3733159,"Sales Rep",238996,"Vacant PO_Karanja-Arvi",,,"Day Ended","Day Ended",,,21.1836058,78.3002768,,NA,"17 Dec 2025 05:15:34 AM"
"End Day",2642033,Customer,0,"-- --","-- --","-- --","-- --",,No,,,2025-12-16,12:45:54,275362,"Baliram Pandari Lambe",3699330,"Sales Rep",239195,"Vikas nagre _BULDHANA",,,"Day Ended","Day Ended",,,20.14367,76.1745133,,NA,"17 Dec 2025 05:15:34 AM"
"End Day",2641963,Customer,0,"-- --","-- --","-- --","-- --",,No,,,2025-12-16,22:05:23,255215,"NITESH MADHUKAR DHOKANE",3602554,"Sales Rep",239013,"Rahul Dorle_Pusad",,,"Day Ended","Day Ended",,,,,,NA,"17 Dec 2025 05:15:33 AM"
"End Day",2641945,Customer,0,"-- --","-- --","-- --","-- --",,No,,,2025-12-16,18:34:55,239455,"Sachin Shinde_Latur",C51,"Territory Manager",239426,"Vijay Babar_TL Sangli",,,"Day Ended","Day Ended",,,18.510585,76.6610233,,NA,"17 Dec 2025 05:15:33 AM"
"End Day",2641933,Customer,0,"-- --","-- --","-- --","-- --",,No,,,2025-12-16,16:39:01,276082,"Haesh Dewangan",3854105,"Sales Rep",242411,"Lokesh Bhairam_DURG",,,"Day Ended","Day Ended",,,21.08631,80.8954862,,NA,"17 Dec 2025 05:15:33 AM"
"End Day",2641919,Customer,0,"-- --","-- --","-- --","-- --",,No,,,2025-12-16,19:29:04,276069,"Kishor Rajdhar Patil",3732336,"Sales Rep",263845,"Ananta Mankar_dhule",,,"Day Ended","Day Ended",,,21.3551167,74.8882067,,NA,"17 Dec 2025 05:15:33 AM"
"End Day",2641918,Customer,0,"-- --","-- --","-- --","-- --",,No,,,2025-12-16,09:46:31,271700,"DESAI SREENIVASULU",3803283,"Sales Rep",240518,Bhanuprakash_Adoni,,,"Day Ended","Day Ended",,,15.8590237,77.2470404,,NA,"17 Dec 2025 05:15:33 AM"
"End Day",2641906,Customer,0,"-- --","-- --","-- --","-- --",,No,,,2025-12-16,09:46:09,249968,"Omkar Sudhakar Gaikwad",3437430,"Sales Rep",239454,"Samdhan devkatte _Osmanabad",,,"Day Ended","Day Ended",,,18.2433568,75.9126289,,NA,"17 Dec 2025 05:15:33 AM"
"End Day",2641900,Customer,0,"-- --","-- --","-- --","-- --",,No,,,2025-12-16,17:57:21,257788,"Ajay Kushvah",3655961,"Sales Rep",242402,"AMIT TIWARI_DHAR",,,"Day Ended","Day Ended",,,,,,NA,"17 Dec 2025 05:15:33 AM"
"End Day",2641893,Customer,0,"-- --","-- --","-- --","-- --",,No,,,2025-12-16,21:46:54,271270,"KHILAN MEHULBHAI PATEL",3792170,"Sales Rep",239260,"Ajit Shipte_gandhinagar",,,"Day Ended","Day Ended",,,,,,NA,"17 Dec 2025 05:15:33 AM"
"End Day",2641861,Customer,0,"-- --","-- --","-- --","-- --",,No,,,2025-12-16,22:31:06,242414,"Vinay Kumar Singh_Bilaspur",D76,"Territory Manager",271703,"Dharmendra Malviya",,,"Day Ended","Day Ended",,,22.0957605,82.0885441,,NA,"17 Dec 2025 05:15:33 AM"
"End Day",2641852,Customer,0,"-- --","-- --","-- --","-- --",,No,,,2025-12-16,07:30:15,245321,"Shekhar Saini_Sumerpur",3363417,"Sales Rep",238107,"Jagat pal_Sumerpur",,,"Day Ended","Day Ended",,,25.7508482,71.4116895,,NA,"17 Dec 2025 05:15:33 AM"
"End Day",2641781,Customer,0,"-- --","-- --","-- --","-- --",,No,,,2025-12-16,16:38:31,231726,"Yogesh Bharti_Satana",C58,"Territory Manager",231718,D.DHOMSE_Nashik,,,"Day Ended","Day Ended",,,,,,NA,"17 Dec 2025 05:15:32 AM"
"End Day",2641763,Customer,0,"-- --","-- --","-- --","-- --",,No,,,2025-12-16,14:02:50,240303,"Kattamuri S V N S S Bhaskar Mani Sekhar_Raichur",C34,"Territory Manager",240300,"Yankappa - Bellary",,,"Day Ended","Day Ended",,,16.1753707,77.0287958,,NA,"17 Dec 2025 05:15:32 AM"
"End Day",2641731,Customer,0,"-- --","-- --","-- --","-- --",,No,,,2025-12-16,22:05:56,237867,"vinayaka shidenur_davengere",C05,"Territory Manager",263313,"SURESH BIRADAR_Davengere",,,"Day Ended","Day Ended",,,14.4236398000,75.5110793000,,NA,"17 Dec 2025 05:15:32 AM"
"End Day",2641721,Customer,0,"-- --","-- --","-- --","-- --",,No,,,2025-12-16,19:32:51,241098,"Sumit Sarkar_South Bengal",G104308,"Sales Manager",241248,"Suman Dutta",,,"Day Ended","Day Ended",,,,,,NA,"17 Dec 2025 05:15:32 AM"
"End Day",2641720,Customer,0,"-- --","-- --","-- --","-- --",,No,,,2025-12-16,17:18:18,240476,"U chandrasekhar_warangal",,"Sales Manager",240475,"vacant_TN BL ",,,"Day Ended","Day Ended",,,17.9752098,79.6018796,,NA,"17 Dec 2025 05:15:32 AM"
"End Day",2641715,Customer,0,"-- --","-- --","-- --","-- --",,No,,,2025-12-16,14:25:51,281128,Ayushi,3932647,"Sales Rep",242396,"CHANDRAPAL SHEKHAWAT_INDORE",,,"Day Ended","Day Ended",,,22.941403800000,75.754222300000,,NA,"17 Dec 2025 05:15:32 AM"
"End Day",2641662,Customer,0,"-- --","-- --","-- --","-- --",,No,,,2025-12-16,13:42:51,277848,"H M Vinayaka Swamy",3884124,"Sales Rep",244051,Vacant_Gangavathi,,,"Day Ended","Day Ended",,,15.5032133,76.5742133,,NA,"17 Dec 2025 05:15:32 AM"
"End Day",2641661,Customer,0,"-- --","-- --","-- --","-- --",,No,,,2025-12-16,23:00:27,242427,"Kapil Barche",3065164,"Sales Rep",242402,"AMIT TIWARI_DHAR",,,"Day Ended","Day Ended",,,22.1531929,75.3504439,,NA,"17 Dec 2025 05:15:32 AM"
"End Day",2641582,Customer,0,"-- --","-- --","-- --","-- --",,No,,,2025-12-16,19:56:04,282379,"GARAPATI RAMESH_Bellary & Gangavati",,"Sales Manager",240300,"Yankappa - Bellary",,,"Day Ended","Day Ended",,,15.14303,76.9289768,,NA,"17 Dec 2025 05:15:31 AM"
"End Day",2641564,Customer,0,"-- --","-- --","-- --","-- --",,No,,,2025-12-16,15:17:36,239803,"Sowenderrajan L _Tirunelveli",D7,"Territory Manager",239800,"MUTHUMANI K-TRICHY",,,"Day Ended","Day Ended",,,9.15008,77.98192,,NA,"17 Dec 2025 05:15:31 AM"
"End Day",2641546,Customer,0,"-- --","-- --","-- --","-- --",,No,,,2025-12-16,11:05:04,262654,"Akash baghel",3733233,"Sales Rep",242402,"AMIT TIWARI_DHAR",,,"Day Ended","Day Ended",,,22.1925883,74.6789283,,NA,"17 Dec 2025 05:15:31 AM"
"End Day",2641521,Customer,0,"-- --","-- --","-- --","-- --",,No,,,2025-12-16,09:34:24,263873,"ANKATHWAR RUTHIK",,"Sales Rep",240663,"Rohan Tate_Adilabad",,,"Day Ended","Day Ended",,,19.683539,78.5371538,,NA,"17 Dec 2025 05:15:31 AM"
"End Day",2641502,Customer,0,"-- --","-- --","-- --","-- --",,No,,,2025-12-16,22:39:51,261460,"Rahul Kamalsing Balode",3709407,"Sales Rep",239196,"Mahadeo Ramdas Nayse_Akola",,,"Day Ended","Day Ended",,,20.6931238,76.9992144,,NA,"17 Dec 2025 05:15:31 AM"
"End Day",2641496,Customer,0,"-- --","-- --","-- --","-- --",,No,,,2025-12-16,19:25:10,274707,"K Santosh Patra",3807920,"Sales Rep",268133,"PARAMITA PRIYADARSHANI_Jeypore",,,"Day Ended","Day Ended",,,19.0796123,83.8077861,,NA,"17 Dec 2025 05:15:31 AM"
"End Day",2641493,Customer,0,"-- --","-- --","-- --","-- --",,No,,,2025-12-16,19:18:24,270569,"ISHWAR CHAND",3784179,"Sales Rep",239609,"Salman Hussain _Lakhimpur",,,"Day Ended","Day Ended",,,28.0673212,80.0959178,,NA,"17 Dec 2025 05:15:31 AM"
"End Day",2641450,Customer,0,"-- --","-- --","-- --","-- --",,No,,,2025-12-16,19:19:48,276059,"Mahesh Ganpat Bobade",3710699,"Sales Rep",242911,"Akshay Ingole_Chandrapur",,,"Day Ended","Day Ended",,,19.773177,79.1376658,,NA,"17 Dec 2025 05:15:30 AM"
"End Day",2641444,Customer,0,"-- --","-- --","-- --","-- --",,No,,,2025-12-16,18:38:17,240322,"Sachin Tammaraya_BELGAUM",A52,"Territory Manager",240319,"Vishwaradhya Biradar-HUBLI",,,"Day Ended","Day Ended",,,16.3515309000,74.9035626000,,NA,"17 Dec 2025 05:15:30 AM"
"End Day",2641415,Customer,0,"-- --","-- --","-- --","-- --",,No,,,2025-12-16,15:05:52,240670,"sushma Chigurupati_Nalgonda",C17,"Territory Manager",240666,"Bera Sharath Chandra Kiran",,,"Day Ended","Day Ended",,,17.0372607,79.262424,,NA,"17 Dec 2025 05:15:30 AM"
"End Day",2641409,Customer,0,"-- --","-- --","-- --","-- --",,No,,,2025-12-16,18:10:18,245433,Yogesh Sanjay Desale_Shahada,,"Sales Rep",263845,"Ananta Mankar_dhule",,,"Day Ended","Day Ended",,,21.4130829,74.7022767,,NA,"17 Dec 2025 05:15:30 AM"
"End Day",2641401,Customer,0,"-- --","-- --","-- --","-- --",,No,,,2025-12-16,13:11:17,278089,"SANGITA PATRA",3864982,"Sales Rep",241103,"Pritam Dey_Hooghly",,,"Day Ended","Day Ended",,,22.891923,87.8603014,,NA,"17 Dec 2025 05:15:30 AM"
"End Day",2641383,Customer,0,"-- --","-- --","-- --","-- --",,No,,,2025-12-16,23:10:32,278101,"Nikita Jivansing Dumale",3872536,"Sales Rep",239392,"sadanand kamale_JALGAON",,,"Day Ended","Day Ended",,,18.522771,73.7626781,,NA,"17 Dec 2025 05:15:30 AM"
"End Day",2641381,Customer,0,"-- --","-- --","-- --","-- --",,No,,,2025-12-16,15:58:44,268133,"PARAMITA PRIYADARSHANI_Jeypore",D79,"Territory Manager",242416,"BIDHU KALYANKAR_BHUBANESHWAR",,,"Day Ended","Day Ended",,,19.8398094,82.1099452,,NA,"17 Dec 2025 05:15:30 AM"
"End Day",2641304,Customer,0,"-- --","-- --","-- --","-- --",,No,,,2025-12-16,19:38:53,270283,"ERRAM RAJU",3784362,"Sales Rep",240667,"Sivatejswar reddy _Gajwel",,,"Day Ended","Day Ended",,,18.2389559,78.8257118,,NA,"17 Dec 2025 05:15:30 AM"
"End Day",2641303,Customer,0,"-- --","-- --","-- --","-- --",,No,,,2025-12-16,17:39:08,276061,"Yogesh ambedare",3821451,"Sales Rep",242911,"Akshay Ingole_Chandrapur",,,"Day Ended","Day Ended",,,20.924945,79.9723783,,NA,"17 Dec 2025 05:15:30 AM"
"End Day",2641275,Customer,0,"-- --","-- --","-- --","-- --",,No,,,2025-12-16,09:25:31,270218,"UCHENTALA NAGARAJU ",3755170,"Sales Rep",240667,"Sivatejswar reddy _Gajwel",,,"Day Ended","Day Ended",,,17.7669432,78.807826,,NA,"17 Dec 2025 05:15:29 AM"
"End Day",2641239,Customer,0,"-- --","-- --","-- --","-- --",,No,,,2025-12-16,18:15:53,278092,"Malakarisidda Pujari",3892746,"Sales Rep",240320,"Laxman Salagar_bijapur",,,"Day Ended","Day Ended",,,17.180483300000,75.669318300000,,NA,"17 Dec 2025 05:15:29 AM"
"End Day",2641237,Customer,0,"-- --","-- --","-- --","-- --",,No,,,2025-12-16,09:24:10,263370,"Gajinder kansal",3745183,"Sales Rep",238151,"Yatendera Rana_BARNALA",,,"Day Ended","Day Ended",,,30.3685029,75.531559,,NA,"17 Dec 2025 05:15:29 AM"
"End Day",2641194,Customer,0,"-- --","-- --","-- --","-- --",,No,,,2025-12-16,17:45:15,274527,"SHIJU S",3831729,"Sales Rep",239812,"Vinu Kumar S _Pallakad",,,"Day Ended","Day Ended",,,,,,NA,"17 Dec 2025 05:15:29 AM"
"End Day",2641192,Customer,0,"-- --","-- --","-- --","-- --",,No,,,2025-12-16,09:22:07,262503,"Bhupindre Singh",3729824,"Sales Rep",238141,"kapil Tyagi_Amritsar",,,"Day Ended","Day Ended",,,31.5587289,75.025519,,NA,"17 Dec 2025 05:15:29 AM"
"End Day",2641189,Customer,0,"-- --","-- --","-- --","-- --",,No,,,2025-12-16,22:04:39,238994,"Shekh Mohiddin Shekh Shahabuddin",3079770,"Sales Rep",243756," vacant Pradip Khapre_Washim",,,"Day Ended","Day Ended",,,,,,NA,"17 Dec 2025 05:15:29 AM"
"End Day",2641164,Customer,0,"-- --","-- --","-- --","-- --",,No,,,2025-12-16,20:02:44,243873,"Aneesh P M",3308122,"Sales Rep",239812,"Vinu Kumar S _Pallakad",,,"Day Ended","Day Ended",,,11.6606851,76.2042813,,NA,"17 Dec 2025 05:15:29 AM"
"End Day",2641148,Customer,0,"-- --","-- --","-- --","-- --",,No,,,2025-12-16,20:37:49,244202,"Pratik Anil Bhurande",3284340,"Sales Rep",242911,"Akshay Ingole_Chandrapur",,,"Day Ended","Day Ended",,,19.7875033,79.36554,,NA,"17 Dec 2025 05:15:29 AM"
"End Day",2641144,Customer,0,"-- --","-- --","-- --","-- --",,No,,,2025-12-16,16:08:36,238236,"SHYAM LAL KUMAWAT",2621386,"Sales Rep",238102,"Manohar Bhargav _Ajmer",,,"Day Ended","Day Ended",,,26.384395,74.433665,,NA,"17 Dec 2025 05:15:29 AM"
"End Day",2641111,Customer,0,"-- --","-- --","-- --","-- --",,No,,,2025-12-16,09:02:20,239456,"Akash Hanumant Giri",3020129,"Sales Rep",239441,"Kiran Sansare_Satara",,,"Day Ended","Day Ended",,,17.7024798,74.1714371,,NA,"17 Dec 2025 05:15:29 AM"
"End Day",2641110,Customer,0,"-- --","-- --","-- --","-- --",,No,,,2025-12-16,11:26:25,281862,"PRASHANS DILIPBHAI KARABNGIYA",,"Sales Rep",239267,"Ashishkumar B. Bhanderi _Jamnagar",,,"Day Ended","Day Ended",,,21.9615934,69.796513,,NA,"17 Dec 2025 05:15:29 AM"
"End Day",2641095,Customer,0,"-- --","-- --","-- --","-- --",,No,,,2025-12-16,09:18:44,270281,"Rajkumar Babruwan Mane",3785917,"Sales Rep",239454,"Samdhan devkatte _Osmanabad",,,"Day Ended","Day Ended",,,,,,NA,"17 Dec 2025 05:15:29 AM"
"End Day",2641039,Customer,0,"-- --","-- --","-- --","-- --",,No,,,2025-12-16,14:52:41,280760,"BILTU ACHARYA",,"Sales Rep",241099,"Sribash Kumar Mallick_krishnanagar",,,"Day Ended","Day Ended",,,23.895915,88.6199872,,NA,"17 Dec 2025 05:15:28 AM"
"End Day",2641036,Customer,0,"-- --","-- --","-- --","-- --",,No,,,2025-12-16,20:35:15,271497,"ANIL KIRAD",3794730,"Sales Rep",238105,"Madhuri Gupta _Jhalawar",,,"Day Ended","Day Ended",,,24.3879542,76.4604756,,NA,"17 Dec 2025 05:15:28 AM"
"End Day",2641015,Customer,0,"-- --","-- --","-- --","-- --",,No,,,2025-12-16,14:31:52,244484,"Bhoala Jat",3333688,"Sales Rep",242404,"Pankaj Singh Bisht_SHIVPURI",,,"Day Ended","Day Ended",,,24.5837062,77.7303592,,NA,"17 Dec 2025 05:15:28 AM"
"End Day",2640949,Customer,0,"-- --","-- --","-- --","-- --",,No,,,2025-12-16,15:26:41,263879,"Devbrat Singh",3745158,"Sales Rep",238123,"Manish Singh_VARANASI",,,"Day Ended","Day Ended",,,25.2598257,83.2681357,,NA,"17 Dec 2025 05:15:28 AM"
"End Day",2640946,Customer,0,"-- --","-- --","-- --","-- --",,No,,,2025-12-16,15:54:35,238196,"Narendra Singh",2619165,"Sales Rep",238120,"shubham Gupta_KICHHA",,,"Day Ended","Day Ended",,,28.7944166,79.3148216,,NA,"17 Dec 2025 05:15:28 AM"
"End Day",2640945,Customer,0,"-- --","-- --","-- --","-- --",,No,,,2025-12-16,17:34:56,262898,"SACHIN C_HASSAN",C06,"Territory Manager",231716,"HariHara MurthyN-BANGALOR",,,"Day Ended","Day Ended",,,12.9999151,76.0933212,,NA,"17 Dec 2025 05:15:28 AM"
"End Day",2640902,Customer,0,"-- --","-- --","-- --","-- --",,No,,,2025-12-16,21:04:17,238293,"Jasvir Singh",2621376,"Sales Rep",238151,"Yatendera Rana_BARNALA",,,"Day Ended","Day Ended",,,30.4735793,75.3282815,,NA,"17 Dec 2025 05:15:27 AM"
"End Day",2640899,Customer,0,"-- --","-- --","-- --","-- --",,No,,,2025-12-16,19:22:17,273964,Hanumanth,3822409,"Sales Rep",240303,"Kattamuri S V N S S Bhaskar Mani Sekhar_Raichur",,,"Day Ended","Day Ended",,,16.1288475,77.33239,,NA,"17 Dec 2025 05:15:27 AM"
"End Day",2640898,Customer,0,"-- --","-- --","-- --","-- --",,No,,,2025-12-16,19:32:56,271312,"TAMILSELVAN DHARMALINGAM",3797655,"Sales Rep",239791,Vetrivel.G_ERODE,,,"Day Ended","Day Ended",,,11.0605253,77.9230859,,NA,"17 Dec 2025 05:15:27 AM"
"End Day",2640886,Customer,0,"-- --","-- --","-- --","-- --",,No,,,2025-12-16,14:51:51,263080,"Gurpreet singh",3720858,"Sales Rep",238173,"Vacant _Sirsa",,,"Day Ended","Day Ended",,,,,,NA,"17 Dec 2025 05:15:27 AM"
"End Day",2640856,Customer,0,"-- --","-- --","-- --","-- --",,No,,,2025-12-16,21:39:06,273961,"MYLE PRAKASH KUMAR",3819691,"Sales Rep",240520,"C.MADANNA _YEMMIGANUR",,,"Day Ended","Day Ended",,,15.7744733,77.4826683,,NA,"17 Dec 2025 05:15:27 AM"
"End Day",2640809,Customer,0,"-- --","-- --","-- --","-- --",,No,,,2025-12-16,14:23:19,240663,"Rohan Tate_Adilabad",C10,"Territory Manager",240661,"GANESH MALLEPULA _KARIMNAGAR",,,"Day Ended","Day Ended",,,19.6824317,78.5418267,,NA,"17 Dec 2025 05:15:27 AM"
"End Day",2640802,Customer,0,"-- --","-- --","-- --","-- --",,No,,,2025-12-16,14:37:45,239247,"Dhiraj Kate_Aalephata",2617894,"Sales Rep",239231,"Yogesh Kadam_Narayangaon",,,"Day Ended","Day Ended",,,19.0276434,74.0658685,,NA,"17 Dec 2025 05:15:27 AM"
"End Day",2640801,Customer,0,"-- --","-- --","-- --","-- --",,No,,,2025-12-16,10:52:00,281670,Sundarlal,,"Sales Rep",242401,"Manoj Chouhan_KHANDWA",,,"Day Ended","Day Ended",,,22.0737994,76.2571586,,NA,"17 Dec 2025 05:15:27 AM"
"End Day",2640776,Customer,0,"-- --","-- --","-- --","-- --",,No,,,2025-12-16,15:40:06,259528,Rameshwar Sheshrao Rathod,3653541,"Sales Rep",239231,"Yogesh Kadam_Narayangaon",,,"Day Ended","Day Ended",,,,,,NA,"17 Dec 2025 05:15:27 AM"
"End Day",2640767,Customer,0,"-- --","-- --","-- --","-- --",,No,,,2025-12-16,09:03:40,239280,"PANALIYA NIRMAL DASRATHBHAI_rajkot",2617876,"Sales Rep",239263,"mahek amreliya_Rajkot",,,"Day Ended","Day Ended",,,22.2270644,70.9114409,,NA,"17 Dec 2025 05:15:27 AM"
"End Day",2640753,Customer,0,"-- --","-- --","-- --","-- --",,No,,,2025-12-16,09:03:00,280922,"RAJ KUMAR",3934904,"Sales Rep",238170,"Kuldeep Godara  _Hissar",,,"Day Ended","Day Ended",,,29.2929783,75.5703983,,NA,"17 Dec 2025 05:15:27 AM"
"End Day",2640735,Customer,0,"-- --","-- --","-- --","-- --",,No,,,2025-12-16,19:28:58,231725,"Dhananjay Ushir_PIMPALGAON BASVANT",B40,"Territory Manager",231718,D.DHOMSE_Nashik,,,"Day Ended","Day Ended",,,20.1731974,73.9899379,,NA,"17 Dec 2025 05:15:26 AM"
"End Day",2640731,Customer,0,"-- --","-- --","-- --","-- --",,No,,,2025-12-16,17:56:43,242428,"Sawan Panchole",3038702,"Sales Rep",242402,"AMIT TIWARI_DHAR",,,"Day Ended","Day Ended",,,21.9613683,75.066285,,NA,"17 Dec 2025 05:15:26 AM"
"End Day",2640725,Customer,0,"-- --","-- --","-- --","-- --",,No,,,2025-12-16,12:49:42,238219,"Rajendra Bhanwriya",2839947,"Sales Rep",238101,"naveen sanodiya_JODHPUR",,,"Day Ended","Day Ended",,,26.8374748,71.0482618,,NA,"17 Dec 2025 05:15:26 AM"
"End Day",2640701,Customer,0,"-- --","-- --","-- --","-- --",,No,,,2025-12-16,20:32:25,262716,"Bommareddy Satyanarayana Reddy_nizamabad",C22,"Territory Manager",240661,"GANESH MALLEPULA _KARIMNAGAR",,,"Day Ended","Day Ended",,,18.6500807,78.1337255,,NA,"17 Dec 2025 05:15:26 AM"
"End Day",2640665,Customer,0,"-- --","-- --","-- --","-- --",,No,,,2025-12-16,21:49:53,271740,"Ankit Tiwari",3801985,"Sales Rep",263438,"Manish Verma_jhansi",,,"Day Ended","Day Ended",,,24.6880782,78.4001297,,NA,"17 Dec 2025 05:15:26 AM"
"End Day",2640651,Customer,0,"-- --","-- --","-- --","-- --",,No,,,2025-12-16,09:38:50,277444,"Abhishek Kumar",3872401,"Sales Rep",238139,"Sachin Kumar_MOGA",,,"Day Ended","Day Ended",,,30.8047441,75.4703935,,NA,"17 Dec 2025 05:15:26 AM"
"End Day",2640646,Customer,0,"-- --","-- --","-- --","-- --",,No,,,2025-12-16,16:00:55,276081,"Shubham Meshram",3854153,"Sales Rep",242411,"Lokesh Bhairam_DURG",,,"Day Ended","Day Ended",,,21.1979826,81.4673017,,NA,"17 Dec 2025 05:15:26 AM"
"End Day",2640616,Customer,0,"-- --","-- --","-- --","-- --",,No,,,2025-12-16,17:04:29,269961,Shubham Fakirrao Jadhav ,3768543,"Sales Rep",231725,"Dhananjay Ushir_PIMPALGAON BASVANT",,,"Day Ended","Day Ended",,,20.2031666,74.0137764,,NA,"17 Dec 2025 05:15:26 AM"
"End Day",2640591,Customer,0,"-- --","-- --","-- --","-- --",,No,,,2025-12-16,22:29:20,232909,"Sachin Fakirrao Labhade _Nashik",A26,"Territory Manager",231718,D.DHOMSE_Nashik,,,"Day Ended","Day Ended",,,20.0327676,73.8656773,,NA,"17 Dec 2025 05:15:26 AM"
"End Day",2640543,Customer,0,"-- --","-- --","-- --","-- --",,No,,,2025-12-16,16:30:20,278847,SUNDARAPANDI.K,3896516,"Sales Rep",239803,"Sowenderrajan L _Tirunelveli",,,"Day Ended","Day Ended",,,9.2942733,78.1368121,,NA,"17 Dec 2025 05:15:25 AM"
"End Day",2640534,Customer,0,"-- --","-- --","-- --","-- --",,No,,,2025-12-16,19:28:14,241212,"ANANTA SINGHA",2617786,"Sales Rep",241199,"GAUTAM  CHAUDHURI_ISLAMPUR",,,"Day Ended","Day Ended",,,26.3842501,88.312979,,NA,"17 Dec 2025 05:15:25 AM"
"End Day",2640519,Customer,0,"-- --","-- --","-- --","-- --",,No,,,2025-12-16,13:19:24,255689,"Rohit Kumar",3609479,"Sales Rep",238163,"Mukesh lohani_AMBALA",,,"Day Ended","Day Ended",,,30.3205079,77.4472038,,NA,"17 Dec 2025 05:15:25 AM"
"End Day",2640502,Customer,0,"-- --","-- --","-- --","-- --",,No,,,2025-12-16,12:17:38,252938,"Moolagiri vishnu",3526504,"Sales Rep",240521,"M Chandrasekhar_Madanapalle",,,"Day Ended","Day Ended",,,,,,NA,"17 Dec 2025 05:15:25 AM"
"End Day",2640490,Customer,0,"-- --","-- --","-- --","-- --",,No,,,2025-12-16,11:04:38,243645,"Pramod Kumar",3299070,"Sales Rep",239165,"Rahul Singh_Allahabad",,,"Day Ended","Day Ended",,,24.7723047,83.0628626,,NA,"17 Dec 2025 05:15:25 AM"
"End Day",2640463,Customer,0,"-- --","-- --","-- --","-- --",,No,,,2025-12-16,18:47:44,252380,"Ram Kumar_Sri Vijaynagar",3476176,"Sales Rep",238111,"Davinder Singh_Sri Ganganagar",,,"Day Ended","Day Ended",,,29.3499651,73.5973486,,NA,"17 Dec 2025 05:15:25 AM"
"End Day",2640455,Customer,0,"-- --","-- --","-- --","-- --",,No,,,2025-12-16,13:12:03,270277,"Puralal makwana (CA)",3784401,"Sales Rep",242396,"CHANDRAPAL SHEKHAWAT_INDORE",,,"Day Ended","Day Ended",,,22.9246138,75.7132857,,NA,"17 Dec 2025 05:15:25 AM"
"End Day",2640454,Customer,0,"-- --","-- --","-- --","-- --",,No,,,2025-12-16,18:49:37,238967,"sandip phopase_Yavatmal",,"Sales Manager",239170,"Nilesh kankewar_Marathwada",,,"Day Ended","Day Ended",,,20.2107883,78.298895,,NA,"17 Dec 2025 05:15:25 AM"
"End Day",2640444,Customer,0,"-- --","-- --","-- --","-- --",,No,,,2025-12-16,21:55:19,238120,"shubham Gupta_KICHHA",A15,"Territory Manager",238113,"vacant-TL-Western UP",,,"Day Ended","Day Ended",,,28.9824568,79.3520889,,NA,"17 Dec 2025 05:15:25 AM"
"End Day",2640441,Customer,0,"-- --","-- --","-- --","-- --",,No,,,2025-12-16,16:12:32,263294,"Mahesh Singh Rajput",3740222,"Sales Rep",242397,"RAJKUMAR MEENA_UJJAIN",,,"Day Ended","Day Ended",,,,,,NA,"17 Dec 2025 05:15:25 AM"
"End Day",2640431,Customer,0,"-- --","-- --","-- --","-- --",,No,,,2025-12-16,08:46:11,241128,"Prasanta Bhakta",2617885,"Sales Rep",241099,"Sribash Kumar Mallick_krishnanagar",,,"Day Ended","Day Ended",,,23.6121084,88.3446384,,NA,"17 Dec 2025 05:15:25 AM"
"End Day",2640406,Customer,0,"-- --","-- --","-- --","-- --",,No,,,2025-12-16,08:44:59,238580,"Manjunatha V",,"Sales Manager",240378,"vacant _AMM SWR2",,,"Day Ended","Day Ended",,,13.2343017,77.9252633,,NA,"17 Dec 2025 05:15:24 AM"
"End Day",2640381,Customer,0,"-- --","-- --","-- --","-- --",,No,,,2025-12-16,13:09:17,241207,"BIMAN KUMAR SINGHA",3112652,"Sales Rep",241198,"MD HAFIJUR RAHAMAN_MALDA",,,"Day Ended","Day Ended",,,25.2258896,88.0153435,,NA,"17 Dec 2025 05:15:24 AM"
"End Day",2640370,Customer,0,"-- --","-- --","-- --","-- --",,No,,,2025-12-16,11:58:40,278026,"Vikash Giri",3887659,"Sales Rep",242403,"Chetan Singh_BHOPAL",,,"Day Ended","Day Ended",,,22.9271175,78.0034306,,NA,"17 Dec 2025 05:15:24 AM"
"End Day",2640348,Customer,0,"-- --","-- --","-- --","-- --",,No,,,2025-12-16,08:41:52,253404,"BANOTHU VEERANNA",3559208,"Sales Rep",240478,"Annasamudram Nandan kamesh _Mahabubabad",,,"Day Ended","Day Ended",,,17.3733836,79.8578797,,NA,"17 Dec 2025 05:15:24 AM"
"End Day",2640334,Customer,0,"-- --","-- --","-- --","-- --",,No,,,2025-12-16,21:39:16,246641,"Sangramsing Sunil Dhomse_Palkhed Mirchi",3357469,"Sales Rep",231725,"Dhananjay Ushir_PIMPALGAON BASVANT",,,"Day Ended","Day Ended",,,,,,NA,"17 Dec 2025 05:15:24 AM"
"End Day",2640332,Customer,0,"-- --","-- --","-- --","-- --",,No,,,2025-12-16,18:03:52,281528,"Ankit kumar Patel",,"Sales Rep",242412,"kamal hassan_DHAMTARI",,,"Day Ended","Day Ended",,,,,,NA,"17 Dec 2025 05:15:24 AM"
"End Day",2640331,Customer,0,"-- --","-- --","-- --","-- --",,No,,,2025-12-16,15:34:16,241160,"Dipjyoti Nath",3156694,"Sales Rep",241116,"Mithun Roy_Kharupetia",,,"Day Ended","Day Ended",,,26.2725089,92.2045158,,NA,"17 Dec 2025 05:15:24 AM"
"End Day",2640324,Customer,0,"-- --","-- --","-- --","-- --",,No,,,2025-12-16,08:40:21,269567,Deepak Ashok Kale ,3768650,"Sales Rep",231725,"Dhananjay Ushir_PIMPALGAON BASVANT",,,"Day Ended","Day Ended",,,20.2816206,73.938301,,NA,"17 Dec 2025 05:15:24 AM"
"End Day",2640313,Customer,0,"-- --","-- --","-- --","-- --",,No,,,2025-12-16,21:24:31,274240,"Kattoju.Sai Tarun",3827047,"Sales Rep",240484,anuhya_Eluru,,,"Day Ended","Day Ended",,,16.451901,80.9869346,,NA,"17 Dec 2025 05:15:24 AM"
"End Day",2640280,Customer,0,"-- --","-- --","-- --","-- --",,No,,,2025-12-16,20:30:53,239470,"Firoj shaikh",2617903,"Sales Rep",239454,"Samdhan devkatte _Osmanabad",,,"Day Ended","Day Ended",,,17.693785,75.8939729,,NA,"17 Dec 2025 05:15:24 AM"
"End Day",2640274,Customer,0,"-- --","-- --","-- --","-- --",,No,,,2025-12-16,09:30:29,276052,"Deepak Maroti Petkule",3790432,"Sales Rep",239175,"Shivkumar shete_Nanded",,,"Day Ended","Day Ended",,,19.4449533,78.1776633,,NA,"17 Dec 2025 05:15:24 AM"
"End Day",2640269,Customer,0,"-- --","-- --","-- --","-- --",,No,,,2025-12-16,19:59:37,271702,"Yogesh T R ",3801916,"Sales Rep",237867,"vinayaka shidenur_davengere",,,"Day Ended","Day Ended",,,,,,NA,"17 Dec 2025 05:15:24 AM"
"End Day",2640267,Customer,0,"-- --","-- --","-- --","-- --",,No,,,2025-12-16,20:57:57,245026,"Sabuj Maiti_Barasat",D92,"Territory Manager",241098,"Sumit Sarkar_South Bengal",,,"Day Ended","Day Ended",,,22.6357658,88.4400641,,NA,"17 Dec 2025 05:15:23 AM"
"End Day",2640255,Customer,0,"-- --","-- --","-- --","-- --",,No,,,2025-12-16,20:53:01,271143,"Vema venkataanjaneya siva naga vara prasad", 3785544,"Sales Rep",240510,"P Yeswanth Reddy _Sattenapalli",,,"Day Ended","Day Ended",,,16.3960806,80.1433595,,NA,"17 Dec 2025 05:15:23 AM"
"End Day",2640254,Customer,0,"-- --","-- --","-- --","-- --",,No,,,2025-12-16,16:42:58,276651,Dharmender,3792929,"Sales Rep",238174,"Vishnu tiwari _Rohtak",,,"Day Ended","Day Ended",,,,,,NA,"17 Dec 2025 05:15:23 AM"
"End Day",2640243,Customer,0,"-- --","-- --","-- --","-- --",,No,,,2025-12-16,19:17:35,262618,"Tarun Sharma",3730037,"Sales Rep",238111,"Davinder Singh_Sri Ganganagar",,,"Day Ended","Day Ended",,,29.3869911,73.6614195,,NA,"17 Dec 2025 05:15:23 AM"
"End Day",2640208,Customer,0,"-- --","-- --","-- --","-- --",,No,,,2025-12-16,08:31:44,277862,Domalapalli.Nagesh,3882776,"Sales Rep",240670,"sushma Chigurupati_Nalgonda",,,"Day Ended","Day Ended",,,16.9509567,79.6031817,,NA,"17 Dec 2025 05:15:23 AM"
"End Day",2640197,Customer,0,"-- --","-- --","-- --","-- --",,No,,,2025-12-16,08:31:27,246438,"AKIB DILAWAR MUJAWAR_ISLAMPUR",3334238,"Sales Rep",239443,"Satyajit Todkar_Kolhapur",,,"Day Ended","Day Ended",,,17.0461821,74.2594456,,NA,"17 Dec 2025 05:15:23 AM"
"End Day",2640187,Customer,0,"-- --","-- --","-- --","-- --",,No,,,2025-12-16,19:15:12,239277,"SUDANI PRADIPKUMAR ARVINDBHAI _DHORAJI",3401379,"Sales Rep",239263,"mahek amreliya_Rajkot",,,"Day Ended","Day Ended",,,21.7355264,70.4563938,,NA,"17 Dec 2025 05:15:23 AM"
"End Day",2640184,Customer,0,"-- --","-- --","-- --","-- --",,No,,,2025-12-16,18:40:36,240517,"Pamidi Jabiullah_ananthpur",I5,"Territory Manager",240516,"Levidi Manikya Reddy_Kurnool",,,"Day Ended","Day Ended",,,14.6864417,77.5695467,,NA,"17 Dec 2025 05:15:23 AM"
"End Day",2640173,Customer,0,"-- --","-- --","-- --","-- --",,No,,,2025-12-16,15:31:07,239459,"Kerappa Sukhadev Metkari",2617843,"Sales Rep",239442,"Mangesh Bhosale_Pandharpur",,,"Day Ended","Day Ended",,,17.5090708,75.4499146,,NA,"17 Dec 2025 05:15:23 AM"
"End Day",2640161,Customer,0,"-- --","-- --","-- --","-- --",,No,,,2025-12-16,21:24:43,261002,"SHAHADATT  SHANKARGIR GIRI",3699342,"Sales Rep",239175,"Shivkumar shete_Nanded",,,"Day Ended","Day Ended",,,,,,NA,"17 Dec 2025 05:15:23 AM"
"End Day",2640148,Customer,0,"-- --","-- --","-- --","-- --",,No,,,2025-12-16,19:39:19,274474,"Prasul patel",3830267,"Sales Rep",242406,"Sonu Dhakad_JABALPUR",,,"Day Ended","Day Ended",,,23.3924222,80.0562186,,NA,"17 Dec 2025 05:15:23 AM"
"End Day",2640135,Customer,0,"-- --","-- --","-- --","-- --",,No,,,2025-12-16,08:12:32,239822,"Manikandan Arumugam",3223844,"Sales Rep",239804,"Senthil Kumar _Trichy",,,"Day Ended","Day Ended",,,11.3376397,78.8204341,,NA,"17 Dec 2025 05:15:23 AM"
"End Day",2640122,Customer,0,"-- --","-- --","-- --","-- --",,No,,,2025-12-16,20:17:07,261793,"HARINDER SINGH",,"Sales Rep",238147,"Shelendra kumar_MUKTSAR",,,"Day Ended","Day Ended",,,30.2795192,74.4817106,,NA,"17 Dec 2025 05:15:23 AM"
"End Day",2640110,Customer,0,"-- --","-- --","-- --","-- --",,No,,,2025-12-16,08:48:40,263872,"GOBBEM RAMAKANTH",,"Sales Rep",240663,"Rohan Tate_Adilabad",,,"Day Ended","Day Ended",,,19.6362539,78.5105552,,NA,"17 Dec 2025 05:15:22 AM"
"End Day",2640104,Customer,0,"-- --","-- --","-- --","-- --",,No,,,2025-12-16,18:21:33,278846,"KUHAN A",3897953,"Sales Rep",239804,"Senthil Kumar _Trichy",,,"Day Ended","Day Ended",,,11.0962796,79.2926225,,NA,"17 Dec 2025 05:15:22 AM"
"End Day",2640103,Customer,0,"-- --","-- --","-- --","-- --",,No,,,2025-12-16,18:21:33,278846,"KUHAN A",3897953,"Sales Rep",239804,"Senthil Kumar _Trichy",,,"Day Ended","Day Ended",,,11.0962796,79.2926225,,NA,"17 Dec 2025 05:15:22 AM"
"End Day",2640100,Customer,0,"-- --","-- --","-- --","-- --",,No,,,2025-12-16,12:04:14,281284,"Chinta Anjaneyulu",3941494,"Sales Rep",240511,"Kishore Reddy _Piduguralla",,,"Day Ended","Day Ended",,,16.2361419,80.0541372,,NA,"17 Dec 2025 05:15:22 AM"
"End Day",2640099,Customer,0,"-- --","-- --","-- --","-- --",,No,,,2025-12-16,20:04:34,263558,"Dasi Rajendra Prasad",3749913,"Sales Rep",240521,"M Chandrasekhar_Madanapalle",,,"Day Ended","Day Ended",,,13.7848797,78.5914544,,NA,"17 Dec 2025 05:15:22 AM"
"End Day",2640098,Customer,0,"-- --","-- --","-- --","-- --",,No,,,2025-12-16,14:25:12,254869,"Suvendu Sarkar ",3592057,"Sales Rep",241197,"Masud Rijwan_BERHAMPORE",,,"Day Ended","Day Ended",,,24.0964133,88.6455183,,NA,"17 Dec 2025 05:15:22 AM"
"End Day",2640097,Customer,0,"-- --","-- --","-- --","-- --",,No,,,2025-12-16,19:38:39,240575,KORNAPAKA.VISHNU,2583035,"Sales Rep",240479,"TALARI SUBHADRA_Warangal",,,"Day Ended","Day Ended",,,17.7534253,79.1419975,,NA,"17 Dec 2025 05:15:22 AM"
"End Day",2640076,Customer,0,"-- --","-- --","-- --","-- --",,No,,,2025-12-16,19:29:46,240629,"KAVURI SRINIVASU",2572734,"Sales Rep",240487,"Lakshman Nallapati_TADEPALLIGUDEM",,,"Day Ended","Day Ended",,,16.9981359,82.2398036,,NA,"17 Dec 2025 05:15:22 AM"
"End Day",2640072,Customer,0,"-- --","-- --","-- --","-- --",,No,,,2025-12-16,08:23:17,245185,"Bidhan Das_Jamalpur",3362957,"Sales Rep",241197,"Masud Rijwan_BERHAMPORE",,,"Day Ended","Day Ended",,,23.9056003,88.474286,,NA,"17 Dec 2025 05:15:22 AM"
"End Day",2640071,Customer,0,"-- --","-- --","-- --","-- --",,No,,,2025-12-16,11:01:15,246866,"POKURI THIRUPATHI RAO_KARAMPUDI",3415556,"Sales Rep",240512,"Atla Siva Krishnareddy_Macherla",,,"Day Ended","Day Ended",,,16.4273894,79.7232829,,NA,"17 Dec 2025 05:15:22 AM"
"End Day",2640065,Customer,0,"-- --","-- --","-- --","-- --",,No,,,2025-12-16,22:58:12,241152,"Sandip Kumar Mahata",3189958,"Sales Rep",241103,"Pritam Dey_Hooghly",,,"Day Ended","Day Ended",,,,,,NA,"17 Dec 2025 05:15:22 AM"
"End Day",2640048,Customer,0,"-- --","-- --","-- --","-- --",,No,,,2025-12-16,10:38:36,241142,"Krishnendu Samanta",2617910,"Sales Rep",241101,"Susovan Ghosh_West Medinipur",,,"Day Ended","Day Ended",,,22.3426787,87.6865986,,NA,"17 Dec 2025 05:15:22 AM"
"End Day",2640045,Customer,0,"-- --","-- --","-- --","-- --",,No,,,2025-12-16,19:52:58,242420,"ISHWAR SINGH",3084544,"Sales Rep",242399,"VISHAL R_RATLAM",,,"Day Ended","Day Ended",,,24.2336846,75.7962137,,NA,"17 Dec 2025 05:15:22 AM"
"End Day",2640039,Customer,0,"-- --","-- --","-- --","-- --",,No,,,2025-12-16,18:29:06,253506,"Shivam Mishra",3435077,"Sales Rep",238116,"Shailendra Pratap Singh_BAREILLY",,,"Day Ended","Day Ended",,,28.2740808,79.1515842,,NA,"17 Dec 2025 05:15:22 AM"
"End Day",2640018,Customer,0,"-- --","-- --","-- --","-- --",,No,,,2025-12-16,09:31:12,240566,"Kurhini Sai charan",3200025,"Sales Rep",240478,"Annasamudram Nandan kamesh _Mahabubabad",,,"Day Ended","Day Ended",,,17.3887919,79.889478,,NA,"17 Dec 2025 05:15:22 AM"
"End Day",2640016,Customer,0,"-- --","-- --","-- --","-- --",,No,,,2025-12-16,18:07:05,238101,"naveen sanodiya_JODHPUR",B53,"Territory Manager",238098,"Vacant-TL-North Rajasthan",,,"Day Ended","Day Ended",,,26.3883468000,73.5402337000,,NA,"17 Dec 2025 05:15:22 AM"
"End Day",2640013,Customer,0,"-- --","-- --","-- --","-- --",,No,,,2025-12-16,08:19:30,241165,"Biplab Kar",2617856,"Sales Rep",241118,"Vacant Agartala_Agartala",,,"Day Ended","Day Ended",,,,,,NA,"17 Dec 2025 05:15:22 AM"
"End Day",2640008,Customer,0,"-- --","-- --","-- --","-- --",,No,,,2025-12-16,11:18:21,238171,"ANIL KUMAR _Fatehabad",B33,"Territory Manager",238159,Mohit_TL,,,"Day Ended","Day Ended",,,29.5115873,75.4471048,,NA,"17 Dec 2025 05:15:22 AM"
"End Day",2640004,Customer,0,"-- --","-- --","-- --","-- --",,No,,,2025-12-16,13:47:31,235974,"Amol Dikhale ",3165724,"Sales Rep",232909,"Sachin Fakirrao Labhade _Nashik",,,"Day Ended","Day Ended",,,20.052278,73.7616619,,NA,"17 Dec 2025 05:15:22 AM"
"End Day",2640002,Customer,0,"-- --","-- --","-- --","-- --",,No,,,2025-12-16,20:15:50,260595,sivasakthi,3693833,"Sales Rep",239765,"Sakthivel B _Kancheepuram",,,"Day Ended","Day Ended",,,13.1841499,79.6105831,,NA,"17 Dec 2025 05:15:22 AM"
"End Day",2639990,Customer,0,"-- --","-- --","-- --","-- --",,No,,,2025-12-16,21:58:16,250987,"MAVILLA RAMAKRISHNA_NAGARKURNOOL",3464939,"Sales Rep",240668,"Lavudya Raju _Jadcharla",,,"Day Ended","Day Ended",,,16.5624236,78.2812496,,NA,"17 Dec 2025 05:15:22 AM"
"End Day",2639980,Customer,0,"-- --","-- --","-- --","-- --",,No,,,2025-12-16,18:32:26,241208,"REZAUL ISLAM",2617858,"Sales Rep",241198,"MD HAFIJUR RAHAMAN_MALDA",,,"Day Ended","Day Ended",,,25.3986467,88.436681,,NA,"17 Dec 2025 05:15:22 AM"
"End Day",2639950,Customer,0,"-- --","-- --","-- --","-- --",,No,,,2025-12-16,11:49:35,254413,Busi Reddy Sai Tejaswar Reddy,3586339,"Sales Rep",240519,"M SUBBA REDDY_proddatur",,,"Day Ended","Day Ended",,,15.0397995266154,78.3462004672538,,NA,"17 Dec 2025 05:15:21 AM"
"End Day",2639930,Customer,0,"-- --","-- --","-- --","-- --",,No,,,2025-12-16,19:54:23,246771,"Ramesh Gaikwad_chandori",3155107,"Sales Rep",231724,"Shubham Shinde_NIPHAD",,,"Day Ended","Day Ended",,,,,,NA,"17 Dec 2025 05:15:21 AM"
"End Day",2639928,Customer,0,"-- --","-- --","-- --","-- --",,No,,,2025-12-16,20:55:16,239285,"Pateliya Sureshbhai Dayabhai_CA_Talaja",3370045,"Sales Rep",239264,"Deepak Chaturvedi_Bhavnagar",,,"Day Ended","Day Ended",,,21.3588634,72.0257011,,NA,"17 Dec 2025 05:15:21 AM"
"End Day",2639926,Customer,0,"-- --","-- --","-- --","-- --",,No,,,2025-12-16,23:19:53,276057,"Ankit Sanjayrao Sayankar",3754743,"Sales Rep",238962,"Kunal Gawande _Nagpur",,,"Day Ended","Day Ended",,,21.3258659,79.4419465,,NA,"17 Dec 2025 05:15:21 AM"
"End Day",2639925,Customer,0,"-- --","-- --","-- --","-- --",,No,,,2025-12-16,10:19:48,262484,Pankaj,3730822,"Sales Rep",238108,"Dheeraj  singh_Hanumangarh",,,"Day Ended","Day Ended",,,29.6673481,74.3872902,,NA,"17 Dec 2025 05:15:21 AM"
"End Day",2639881,Customer,0,"-- --","-- --","-- --","-- --",,No,,,2025-12-16,13:08:51,249419,"Sushant Shantaram Hingane",3324690,"Sales Rep",239231,"Yogesh Kadam_Narayangaon",,,"Day Ended","Day Ended",,,19.2732368,73.9295174,,NA,"17 Dec 2025 05:15:21 AM"
"End Day",2639870,Customer,0,"-- --","-- --","-- --","-- --",,No,,,2025-12-16,21:01:12,239801,"Sonymon K V _Thrissur",A42,"Territory Manager",239800,"MUTHUMANI K-TRICHY",,,"Day Ended","Day Ended",,,,,,NA,"17 Dec 2025 05:15:21 AM"
"End Day",2639863,Customer,0,"-- --","-- --","-- --","-- --",,No,,,2025-12-16,15:34:41,276475,"Anil Muralidhar Rathod",3858927,"Sales Rep",239174,"Sachin Pandav_Parbhani",,,"Day Ended","Day Ended",,,,,,NA,"17 Dec 2025 05:15:21 AM"
"End Day",2639851,Customer,0,"-- --","-- --","-- --","-- --",,No,,,2025-12-16,14:48:32,262197,Nishu,3728171,"Sales Rep",238122,"Ankit Singh _MORADABAD",,,"Day Ended","Day Ended",,,28.75499,78.2411183,,NA,"17 Dec 2025 05:15:21 AM"
"End Day",2639844,Customer,0,"-- --","-- --","-- --","-- --",,No,,,2025-12-16,16:53:59,239265,"Jaywant Wable_Surendranagar",D53,"Territory Manager",239259,"Chetanbhai Prajapati_Gujarat",,,"Day Ended","Day Ended",,,,,,NA,"17 Dec 2025 05:15:21 AM"
"End Day",2639840,Customer,0,"-- --","-- --","-- --","-- --",,No,,,2025-12-16,08:07:18,239233,"Sanjay Sadashiv Dhamale  _Peth",2617905,"Sales Rep",239231,"Yogesh Kadam_Narayangaon",,,"Day Ended","Day Ended",,,18.9200226,73.9208286,,NA,"17 Dec 2025 05:15:21 AM"
"End Day",2639838,Customer,0,"-- --","-- --","-- --","-- --",,No,,,2025-12-16,17:30:24,278059,"Lina Ramesh Budhe",3880562,"Sales Rep",239442,"Mangesh Bhosale_Pandharpur",,,"Day Ended","Day Ended",,,,,,NA,"17 Dec 2025 05:15:21 AM"
"End Day",2639834,Customer,0,"-- --","-- --","-- --","-- --",,No,,,2025-12-16,08:06:45,242486,"CHINMAYA KUMAR PATTANAYAK",2570507,"Sales Rep",268133,"PARAMITA PRIYADARSHANI_Jeypore",,,"Day Ended","Day Ended",,,19.662558,82.2053921,,NA,"17 Dec 2025 05:15:20 AM"
"End Day",2639816,Customer,0,"-- --","-- --","-- --","-- --",,No,,,2025-12-16,16:42:56,276015,Jagadeesha.k,3796284,"Sales Rep",240304,"GARAPATI RAMESH SO-Kurugodu",,,"Day Ended","Day Ended",,,15.344812700000,76.834969400000,,NA,"17 Dec 2025 05:15:20 AM"
"End Day",2639813,Customer,0,"-- --","-- --","-- --","-- --",,No,,,2025-12-16,20:59:01,276074,"Akash Prakash Thakare",3752197,"Sales Rep",238969,"Vacant Po _Mukutban",,,"Day Ended","Day Ended",,,20.1782312,78.3153145,,NA,"17 Dec 2025 05:15:20 AM"
"End Day",2639807,Customer,0,"-- --","-- --","-- --","-- --",,No,,,2025-12-16,17:24:43,240675,"M.Anand Rao",2586098,"Sales Rep",240663,"Rohan Tate_Adilabad",,,"Day Ended","Day Ended",,,19.6767308,78.5320788,,NA,"17 Dec 2025 05:15:20 AM"
"End Day",2639805,Customer,0,"-- --","-- --","-- --","-- --",,No,,,2025-12-16,15:28:51,242399,"VISHAL R_RATLAM",D73,"Territory Manager",242323,"SHAILENDRA SOLANKHI_INDORE",,,"Day Ended","Day Ended",,,24.0391119,74.7801693,,NA,"17 Dec 2025 05:15:20 AM"
"End Day",2639799,Customer,0,"-- --","-- --","-- --","-- --",,No,,,2025-12-16,21:56:07,267960,"KACHHAD HIREN RAGHAV BHAI	",3753396,"Sales Rep",239264,"Deepak Chaturvedi_Bhavnagar",,,"Day Ended","Day Ended",,,21.728841,72.1546573,,NA,"17 Dec 2025 05:15:20 AM"
"End Day",2639792,Customer,0,"-- --","-- --","-- --","-- --",,No,,,2025-12-16,15:52:00,241132,"Abhijit Podder",2996334,"Sales Rep",241099,"Sribash Kumar Mallick_krishnanagar",,,"Day Ended","Day Ended",,,23.1559098,88.4966088,,NA,"17 Dec 2025 05:15:20 AM"
"End Day",2639782,Customer,0,"-- --","-- --","-- --","-- --",,No,,,2025-12-16,08:03:27,271510,Robin,3798723,"Sales Rep",238108,"Dheeraj  singh_Hanumangarh",,,"Day Ended","Day Ended",,,29.8840242,74.449733,,NA,"17 Dec 2025 05:15:20 AM"
"End Day",2639764,Customer,0,"-- --","-- --","-- --","-- --",,No,,,2025-12-16,21:23:08,273415," bhavesh bhikhubhai barvadiya",3797480,"Sales Rep",239268,"Karan Hadvani_Junagdh",,,"Day Ended","Day Ended",,,21.5391512,70.4438442,,NA,"17 Dec 2025 05:15:20 AM"
"End Day",2639763,Customer,0,"-- --","-- --","-- --","-- --",,No,,,2025-12-16,11:34:37,274463,"Jadhav Dhiraj Sandip ",3823435,"Sales Rep",231724,"Shubham Shinde_NIPHAD",,,"Day Ended","Day Ended",,,20.0434326,74.2011326,,NA,"17 Dec 2025 05:15:20 AM"
"End Day",2639756,Customer,0,"-- --","-- --","-- --","-- --",,No,,,2025-12-16,15:17:31,246865,"Rajesh Patidar_Jaora",3401077,"Sales Rep",242399,"VISHAL R_RATLAM",,,"Day Ended","Day Ended",,,23.7983068,75.0020878,,NA,"17 Dec 2025 05:15:20 AM"
"End Day",2639749,Customer,0,"-- --","-- --","-- --","-- --",,No,,,2025-12-16,19:58:32,270570,"Mr. Aditya Sambhaji Aher",3791843,"Sales Rep",239250,"Bhushan Gaikwad_Ahmednagar",,,"Day Ended","Day Ended",,,19.3794283,75.1223004,,NA,"17 Dec 2025 05:15:20 AM"
"End Day",2639746,Customer,0,"-- --","-- --","-- --","-- --",,No,,,2025-12-16,22:02:14,277583,"RAMU G",3875455,"Sales Rep",239805,"MUTHU IRULAPPAN_Dindigul",,,"Day Ended","Day Ended",,,10.5929539,77.6854898,,NA,"17 Dec 2025 05:15:20 AM"
"End Day",2639745,Customer,0,"-- --","-- --","-- --","-- --",,No,,,2025-12-16,17:16:29,270393,"Vemunoori Sravan",3782413,"Sales Rep",240479,"TALARI SUBHADRA_Warangal",,,"Day Ended","Day Ended",,,17.9358233,79.67539,,NA,"17 Dec 2025 05:15:20 AM"
"End Day",2639737,Customer,0,"-- --","-- --","-- --","-- --",,No,,,2025-12-16,18:15:40,268359,"ISAHAK ALI",3767541,"Sales Rep",241198,"MD HAFIJUR RAHAMAN_MALDA",,,"Day Ended","Day Ended",,,25.7407367,88.1531484,,NA,"17 Dec 2025 05:15:20 AM"
"End Day",2639735,Customer,0,"-- --","-- --","-- --","-- --",,No,,,2025-12-16,18:49:14,281325,"Sudhanshu Asati",3948646,"Sales Rep",242405,"Soumya Sawaran_SAGAR",,,"Day Ended","Day Ended",,,23.3839555,79.0173341,,NA,"17 Dec 2025 05:15:20 AM"
"End Day",2639732,Customer,0,"-- --","-- --","-- --","-- --",,No,,,2025-12-16,13:23:02,263822,M.ARAVINTH,3725229,"Sales Rep",239809,"Vacant SO_Krishnagiri",,,"Day Ended","Day Ended",,,12.614339,77.6529813,,NA,"17 Dec 2025 05:15:20 AM"
"End Day",2639730,Customer,0,"-- --","-- --","-- --","-- --",,No,,,2025-12-16,17:00:56,231727,"BHAVNESH NANDKISHORE TAMORE",2617906,"Sales Rep",232909,"Sachin Fakirrao Labhade _Nashik",,,"Day Ended","Day Ended",,,19.8327751,72.6945991,,NA,"17 Dec 2025 05:15:20 AM"
"End Day",2639728,Customer,0,"-- --","-- --","-- --","-- --",,No,,,2025-12-16,22:18:57,276049,"Sangmeshwer Eknath Ekale",3699343,"Sales Rep",239175,"Shivkumar shete_Nanded",,,"Day Ended","Day Ended",,,18.701759,77.3722888,,NA,"17 Dec 2025 05:15:20 AM"
"End Day",2639722,Customer,0,"-- --","-- --","-- --","-- --",,No,,,2025-12-16,08:00:31,240189,"Bhuvaneswaran R",3253085,"Sales Rep",239805,"MUTHU IRULAPPAN_Dindigul",,,"Day Ended","Day Ended",,,10.4107377,77.9892633,,NA,"17 Dec 2025 05:15:20 AM"
"End Day",2639721,Customer,0,"-- --","-- --","-- --","-- --",,No,,,2025-12-16,20:01:28,238105,"Madhuri Gupta _Jhalawar",B56,"Territory Manager",238099,"Vacant TL",,,"Day Ended","Day Ended",,,24.5925663,76.1715377,,NA,"17 Dec 2025 05:15:20 AM"
"End Day",2639704,Customer,0,"-- --","-- --","-- --","-- --",,No,,,2025-12-16,19:37:05,274371,"Hanumanta Gangadhar Wankhede",3477205,"Sales Rep",246702,"ajay jadhav_Aurangabad",,,"Day Ended","Day Ended",,,20.1118655,75.7207996,,NA,"17 Dec 2025 05:15:19 AM"
"End Day",2639682,Customer,0,"-- --","-- --","-- --","-- --",,No,,,2025-12-16,18:04:34,238264,"Mahendra Singh",3186201,"Sales Rep",238171,"ANIL KUMAR _Fatehabad",,,"Day Ended","Day Ended",,,29.3916138,75.5408432,,NA,"17 Dec 2025 05:15:19 AM"
"End Day",2639676,Customer,0,"-- --","-- --","-- --","-- --",,No,,,2025-12-16,23:52:15,273417,"GRANDHE VIJAY KUMAR",3814538,"Sales Rep",240511,"Kishore Reddy _Piduguralla",,,"Day Ended","Day Ended",,,16.2379918,80.0536558,,NA,"17 Dec 2025 05:15:19 AM"
"End Day",2639674,Customer,0,"-- --","-- --","-- --","-- --",,No,,,2025-12-16,15:11:47,231724,"Shubham Shinde_NIPHAD",A21,"Territory Manager",231718,D.DHOMSE_Nashik,,,"Day Ended","Day Ended",,,20.0530310000,74.6752976000,,NA,"17 Dec 2025 05:15:19 AM"
"End Day",2639658,Customer,0,"-- --","-- --","-- --","-- --",,No,,,2025-12-16,15:32:09,238972,"Yuvraj Haribhau Bhuyar",,"Sales Rep",238962,"Kunal Gawande _Nagpur",,,"Day Ended","Day Ended",,,20.9367133,79.4374133,,NA,"17 Dec 2025 05:15:19 AM"
"End Day",2639644,Customer,0,"-- --","-- --","-- --","-- --",,No,,,2025-12-16,18:20:58,276622,"Md Milon Hossain",,"Sales Rep",241197,"Masud Rijwan_BERHAMPORE",,,"Day Ended","Day Ended",,,24.0930512,88.4370658,,NA,"17 Dec 2025 05:15:19 AM"
"End Day",2639640,Customer,0,"-- --","-- --","-- --","-- --",,No,,,2025-12-16,21:16:52,239804,"Senthil Kumar _Trichy",A41,"Territory Manager",239800,"MUTHUMANI K-TRICHY",,,"Day Ended","Day Ended",,,11.1695307,78.7784608,,NA,"17 Dec 2025 05:15:19 AM"
"End Day",2639632,Customer,0,"-- --","-- --","-- --","-- --",,No,,,2025-12-16,21:03:54,274609,"Katagoni Ramesh Goud",3827157,"Sales Rep",245002,"M SUNEEL KUMAR_Gadwal",,,"Day Ended","Day Ended",,,16.1082965,78.3161525,,NA,"17 Dec 2025 05:15:19 AM"
"End Day",2639628,Customer,0,"-- --","-- --","-- --","-- --",,No,,,2025-12-16,20:29:37,280354,"Sheggari Narsimulu",,"Sales Rep",240667,"Sivatejswar reddy _Gajwel",,,"Day Ended","Day Ended",,,18.0108636,78.1392132,,NA,"17 Dec 2025 05:15:19 AM"
"End Day",2639609,Customer,0,"-- --","-- --","-- --","-- --",,No,,,2025-12-16,17:07:21,231730,"Nilesh Nehete",3455878,"Sales Rep",232909,"Sachin Fakirrao Labhade _Nashik",,,"Day Ended","Day Ended",,,19.6940277,73.7682462,,NA,"17 Dec 2025 05:15:19 AM"
"End Day",2639607,Customer,0,"-- --","-- --","-- --","-- --",,No,,,2025-12-16,18:43:02,269491,"NIKHIL SANJAY JADHAV",3768646,"Sales Rep",232909,"Sachin Fakirrao Labhade _Nashik",,,"Day Ended","Day Ended",,,20.2529716,73.9299733,,NA,"17 Dec 2025 05:15:19 AM"
"End Day",2639597,Customer,0,"-- --","-- --","-- --","-- --",,No,,,2025-12-16,18:17:26,238125,"Raghvendra Singh_KANPUR",G4,"Territory Manager",238114,"Digvijay Singh-East UP",,,"Day Ended","Day Ended",,,26.4480217,80.19278,,NA,"17 Dec 2025 05:15:19 AM"
"End Day",2639589,Customer,0,"-- --","-- --","-- --","-- --",,No,,,2025-12-16,15:57:33,281891,"Harshitha Agnes",,"Sales Rep",281890,"Vacant SO_Vijayawada",,,"Day Ended","Day Ended",,,18.5301814,83.6547875,,NA,"17 Dec 2025 05:15:19 AM"
"End Day",2639582,Customer,0,"-- --","-- --","-- --","-- --",,No,,,2025-12-16,20:51:11,276075,"Ashish Chandrashekhar Chakule",3752187,"Sales Rep",238969,"Vacant Po _Mukutban",,,"Day Ended","Day Ended",,,,,,NA,"17 Dec 2025 05:15:19 AM"
"End Day",2639576,Customer,0,"-- --","-- --","-- --","-- --",,No,,,2025-12-16,22:26:41,238121,"Jai Prakash mishra_Faizabad",B51,"Territory Manager",238114,"Digvijay Singh-East UP",,,"Day Ended","Day Ended",,,,,,NA,"17 Dec 2025 05:15:18 AM"
"End Day",2639572,Customer,0,"-- --","-- --","-- --","-- --",,No,,,2025-12-16,20:28:41,238148,"ZIAUL HAQUE _MANSA",A94,"Territory Manager",239596,"Vacant TL_Punjab",,,"Day Ended","Day Ended",,,29.9853683,75.4053833,,NA,"17 Dec 2025 05:15:18 AM"
"End Day",2639548,Customer,0,"-- --","-- --","-- --","-- --",,No,,,2025-12-16,07:47:32,231738,"Nikhil Ragunath Niphade",2617801,"Sales Rep",231725,"Dhananjay Ushir_PIMPALGAON BASVANT",,,"Day Ended","Day Ended",,,20.2132728,74.0500933,,NA,"17 Dec 2025 05:15:18 AM"
"End Day",2639543,Customer,0,"-- --","-- --","-- --","-- --",,No,,,2025-12-16,14:33:32,239264,"Deepak Chaturvedi_Bhavnagar",H6,"Territory Manager",239259,"Chetanbhai Prajapati_Gujarat",,,"Day Ended","Day Ended",,,,,,NA,"17 Dec 2025 05:15:18 AM"
"End Day",2639539,Customer,0,"-- --","-- --","-- --","-- --",,No,,,2025-12-16,07:47:36,248669,"Manas Pramanik",3384149,"Sales Rep",241102,"Snehasish Chakraborty_East Medinipur",,,"Day Ended","Day Ended",,,22.5657818,88.4834001,,NA,"17 Dec 2025 05:15:18 AM"
"End Day",2639537,Customer,0,"-- --","-- --","-- --","-- --",,No,,,2025-12-16,07:47:19,241147,"Sibu Jana",2617901,"Sales Rep",241102,"Snehasish Chakraborty_East Medinipur",,,"Day Ended","Day Ended",,,22.5657789,88.4833495,,NA,"17 Dec 2025 05:15:18 AM"
"End Day",2639525,Customer,0,"-- --","-- --","-- --","-- --",,No,,,2025-12-16,19:52:41,259378,"VIJAY S",,"Sales Rep",239763,"JAYAKUMAR C_VILLUPURAM",,,"Day Ended","Day Ended",,,12.339917,79.5862349,,NA,"17 Dec 2025 05:15:18 AM"
"End Day",2639497,Customer,0,"-- --","-- --","-- --","-- --",,No,,,2025-12-16,16:51:30,273443,"Kallayya M",3796526,"Sales Rep",258634," veerappa kivudanavar_Hubli",,,"Day Ended","Day Ended",,,15.4611867,75.0127435,,NA,"17 Dec 2025 05:15:18 AM"
"End Day",2639487,Customer,0,"-- --","-- --","-- --","-- --",,No,,,2025-12-16,07:42:48,271521,"Nikhil Desai",3496841,"Sales Rep",240322,"Sachin Tammaraya_BELGAUM",,,"Day Ended","Day Ended",,,16.4494139,74.3590032,,NA,"17 Dec 2025 05:15:18 AM"
"End Day",2639481,Customer,0,"-- --","-- --","-- --","-- --",,No,,,2025-12-16,19:09:03,245042,"Naresh Ramdas Farkade_Amthana",3316788,"Sales Rep",246702,"ajay jadhav_Aurangabad",,,"Day Ended","Day Ended",,,20.2202583,75.5883467,,NA,"17 Dec 2025 05:15:18 AM"
"End Day",2639480,Customer,0,"-- --","-- --","-- --","-- --",,No,,,2025-12-16,07:42:28,241139,"Subrata Sasmal",2617779,"Sales Rep",241101,"Susovan Ghosh_West Medinipur",,,"Day Ended","Day Ended",,,22.5725251,87.6791955,,NA,"17 Dec 2025 05:15:18 AM"
"End Day",2639479,Customer,0,"-- --","-- --","-- --","-- --",,No,,,2025-12-16,07:42:26,231718,D.DHOMSE_Nashik,310,"Sales Manager",238579,"prajkta patil ",,,"Day Ended","Day Ended",,,20.2078396,74.0722218,,NA,"17 Dec 2025 05:15:18 AM"
"End Day",2639468,Customer,0,"-- --","-- --","-- --","-- --",,No,,,2025-12-16,16:57:42,276071,"Ravindra choubey",3813036,"Sales Rep",239009,"Vacant PO_Paratwada",,,"Day Ended","Day Ended",,,,,,NA,"17 Dec 2025 05:15:18 AM"
"End Day",2639460,Customer,0,"-- --","-- --","-- --","-- --",,No,,,2025-12-16,14:11:55,240520,"C.MADANNA _YEMMIGANUR",C27,"Territory Manager",240516,"Levidi Manikya Reddy_Kurnool",,,"Day Ended","Day Ended",,,15.7693603,77.4813139,,NA,"17 Dec 2025 05:15:18 AM"
"End Day",2639458,Customer,0,"-- --","-- --","-- --","-- --",,No,,,2025-12-16,07:21:14,280003,"DASARI SRINIVAS",,"Sales Rep",240513,"Bijjam Siva Krishnareddy_Addanki",,,"Day Ended","Day Ended",,,15.9204307,80.2431414,,NA,"17 Dec 2025 05:15:18 AM"
"End Day",2639448,Customer,0,"-- --","-- --","-- --","-- --",,No,,,2025-12-16,07:40:19,271200,"SUKUMAR SAR",3792798,"Sales Rep",241101,"Susovan Ghosh_West Medinipur",,,"Day Ended","Day Ended",,,22.8473242,87.3030494,,NA,"17 Dec 2025 05:15:17 AM"
"End Day",2639432,Customer,0,"-- --","-- --","-- --","-- --",,No,,,2025-12-16,10:01:52,240526,Ramesh,2632836,"Sales Rep",240509,"Bareddy Venkateswarlu _Guntur",,,"Day Ended","Day Ended",,,16.2313809,80.3913353,,NA,"17 Dec 2025 05:15:17 AM"
"End Day",2639419,Customer,0,"-- --","-- --","-- --","-- --",,No,,,2025-12-16,08:51:11,239184,"NIKHIL YALCHAWAR",2617775,"Sales Rep",239175,"Shivkumar shete_Nanded",,,"Day Ended","Day Ended",,,19.819725,78.310735,,NA,"17 Dec 2025 05:15:17 AM"
"End Day",2639415,Customer,0,"-- --","-- --","-- --","-- --",,No,,,2025-12-16,18:04:38,271116,"Jaydeep Patel	",3788114,"Sales Rep",242404,"Pankaj Singh Bisht_SHIVPURI",,,"Day Ended","Day Ended",,,25.7937244,78.1060038,,NA,"17 Dec 2025 05:15:17 AM"
